municipio;parroquia;nombre;tipo_centro;situacion;latitud;longitud
MP. BRUZUAL;PQ. SABANA DE UCHIRE;UNIDAD EDUCATIVA SAN ANTONIO  154-80 NUCLEO DE EDUCACION RURAL 504;UNIDAD EDUCATIVA;Cerrado;10.01095101;-65.55110103
MP. BRUZUAL;PQ. SABANA DE UCHIRE;GRUPO ESCOLAR LICENCIADO URBANEJA;GRUPO ESCOLAR;Cerrado;10.01810403;-65.52154404
MP. BRUZUAL;PQ. SABANA DE UCHIRE;UNIDAD EDUCATIVA NACIONAL PIEDRA AZUL NUCLEO ESCOLAR RURAL 504;UNIDAD EDUCATIVA;Cerrado;10.01778597;-65.51671104
MP. BRUZUAL;PQ. SABANA DE UCHIRE;UNIDAD EDUCATIVA EL LIMON NUCLEO ESCOLAR RURAL 504;UNIDAD EDUCATIVA;Cerrado;10.02330198;-65.50670997
MP. BRUZUAL;PQ. SABANA DE UCHIRE;ESCUELA ESTADAL DE CHAVITO;EDUCACION BASICA;Cerrado;10.03957002;-65.44072296
MP.S JUAN CAPISTRANO;PQ. BOCA DE UCHIRE;ESCUELA BASICA TOMAS IGNACIO POTENTINI;EDUCACION BASICA;Cerrado;10.12683996;-65.42713602
MP.S JUAN CAPISTRANO;PQ. BOCA DE UCHIRE;UNIDAD EDUCATIVA NACIONAL AUGUSTO D`AUBETERRE;UNIDAD EDUCATIVA;Cerrado;10.12977504;-65.42087796
MP.S JUAN CAPISTRANO;PQ. BOCA DE CHAVEZ;ESCUELA CONCENTRADA NUMERO 2069;EDUCACION BASICA;Cerrado;10.08961596;-65.37479598
MP. PE?ALVER;PQ. SUCRE;ESCUELA BOLIVARIANA AGUAS CALIENTE;EDUCACION BASICA;Cerrado;10.03106403;-65.31957099
MP. BRUZUAL;PQ. GUANAPE;ESCUELA CREACION NACIONAL;EDUCACION BASICA;Cerrado;9.995247;-65.317257
MP. BRUZUAL;CM. CLARINES;LICEO BOLIVARIANO DOCTOR JOSE RAFAEL DOMINGUEZ;LICEO;Cerrado;9.94052304;-65.162286
MP. PE?ALVER;PQ. SUCRE;ESCUELA NACIONAL UNITARIA NUMERO 1290 NUEVO UNARE;EDUCACION BASICA;Cerrado;10.09859697;-65.20855401
MP. PE?ALVER;PQ. SUCRE;UNIDAD EDUCATIVA PIO CEBALLOS;UNIDAD EDUCATIVA;Cerrado;10.10747601;-65.24994303
MP. CARVAJAL;PQ. VALLE GUANAPE;ESCUELA BASICA NACIONAL CARVAJAL;EDUCACION BASICA;Cerrado;9.91139598;-65.68149699
MP. CARVAJAL;PQ. VALLE GUANAPE;ESCUELA BOLIVARIANA LAS AGUADITAS;EDUCACION BASICA;Cerrado;9.91163799;-65.67732504
MP. CARVAJAL;PQ. VALLE GUANAPE;LICEO BOLIVARIANO SIMON RODRIGUEZ;LICEO;Cerrado;9.91509201;-65.67636204
MP. CARVAJAL;PQ. VALLE GUANAPE;ESCUELA BOLIVARIANA JOSE DE JESUS CUMACHE;EDUCACION BASICA;Cerrado;9.90839502;-65.67625998
MP. CARVAJAL;PQ. VALLE GUANAPE;ESCUELA BOLIVARIANA LAS COCUIZAS NUCLEO EDUCACION RURAL 128;EDUCACION BASICA;Cerrado;9.79087203;-65.64873798
MP. BRUZUAL;PQ. GUANAPE;UNIDAD EDUCATIVA MAYARES NUMERO 2118 - 2184;UNIDAD EDUCATIVA;Cerrado;9.91233198;-65.54584503
MP. BRUZUAL;PQ. GUANAPE;GRUPO ESCOLAR DIEGO BAUTISTA URBANEJA;GRUPO ESCOLAR;Cerrado;9.91770903;-65.51077302
MP. BRUZUAL;PQ. GUANAPE;UNIDAD EDUCATIVA NACIONAL MANUEL EZEQUIEL BRUZUAL;UNIDAD EDUCATIVA;Cerrado;9.91522098;-65.50986501
MP. BRUZUAL;PQ. GUANAPE;ESCUELA LA CIRILERA NUCLEO ESTADAL RURAL  444;EDUCACION BASICA;Cerrado;9.83942802;-65.50641099
MP. CAJIGAL;CM. ONOTO;UNIDAD EDUCATIVA BOLIVARIANA GUARIBE TENEPE NUMERO 1195-269-140 NUCLEO ESCOLAR RURAL 444;UNIDAD EDUCATIVA;Cerrado;9.75841299;-65.48649597
MP. BRUZUAL;PQ. GUANAPE;UNIDAD EDUCATIVA BOLIVARIANA EL GUAMO NUCLEO ESCOLAR RURAL 077;UNIDAD EDUCATIVA;Cerrado;9.92049804;-65.44905903
MP. BRUZUAL;PQ. GUANAPE;ESCUELA  MIXTA CONCENTRADA NUMERO 47-1355-2000 GUANAPITO;EDUCACION BASICA;Cerrado;9.84074904;-65.36471004
MP. BRUZUAL;CM. CLARINES;ESCUELA NACIONAL BOLIVARIANA NUCLEO ESTADAL RURAL 259 CARRIZALITO;EDUCACION BASICA;Cerrado;9.76929102;-65.29093902
MP. BRUZUAL;CM. CLARINES;ESCUELA CONCENTRADA NUMERO 1243-288 PASO REAL;EDUCACION BASICA;Cerrado;9.88790202;-65.19368898
MP. BRUZUAL;CM. CLARINES;LICEO RAFAEL PE?ALVER;LICEO;Cerrado;9.93751803;-65.16749601
MP. BRUZUAL;CM. CLARINES;ESCUELA ESTADAL PEDRO ANTONIO MEDINA;EDUCACION BASICA;Cerrado;9.94038903;-65.15902197
MP. BRUZUAL;CM. CLARINES;ESCUELA BOLIVARIANA CARUTICO;EDUCACION BASICA;Cerrado;9.88857702;-65.15900397
MP. BRUZUAL;CM. CLARINES;CENTRO DE EDUCACION INTEGRAL EL CUATRO NUCLEO ESTADAL RURAL 183;CENTRO DE EDUCACION INTEGRAL;Cerrado;9.94407903;-65.13972399
MP. PE?ALVER;CM. PUERTO PIRITU;ESCUELA BOLIVARIANA PACHAQUITO;EDUCACION BASICA;Cerrado;9.97752096;-65.10321801
MP. PE?ALVER;CM. PUERTO PIRITU;ESCUELA BOLIVARIANA LA MEDIANIA;EDUCACION BASICA;Cerrado;10.00119303;-65.07013599
MP. PE?ALVER;CM. PUERTO PIRITU;UNIDAD EDUCATIVA NACIONAL CAYAURIMA;UNIDAD EDUCATIVA;Cerrado;10.05105897;-65.06180604
MP. PIRITU;PQ. PIRITU;UNIDAD EDUCATIVA BOLIVARIANA GUAYABAL;UNIDAD EDUCATIVA;Cerrado;9.92935701;-65.06566902
MP. PE?ALVER;CM. PUERTO PIRITU;ESCUELA ESTADAL EZEQUIEL ZAMORA;EDUCACION BASICA;Cerrado;10.05650199;-65.05524504
MP. PE?ALVER;CM. PUERTO PIRITU;ESCUELA BOLIVARIANA CECILIO ACOSTA;EDUCACION BASICA;Cerrado;10.05577704;-65.05335999
MP. PIRITU;PQ. PIRITU;ESCUELA BOLIVARIANA CAPACHAL;EDUCACION BASICA;Cerrado;9.91155699;-65.06358102
MP. PIRITU;PQ. PIRITU;UNIDAD EDUCATIVA NACIONAL POZO HONDO;UNIDAD EDUCATIVA;Cerrado;9.95829003;-65.05501401
MP. PE?ALVER;CM. PUERTO PIRITU;INSTITUTO UNIVERSITARIO TECNOLOGICO JUAN PABLO PEREZ ALFONZO IUTEPAL;INSTITUTO UNIVERSITARIO;Cerrado;10.06274097;-65.04437997
MP. PIRITU;PQ. PIRITU;UNIDAD EDUCATIVA VISTA AL MAR;UNIDAD EDUCATIVA;Cerrado;10.04747697;-65.043243
MP. CAJIGAL;PQ. SAN PABLO;ESCUELA  ESTADAL CONCENTRADA NUMERO 144-55 SALISTRAL;EDUCACION BASICA;Cerrado;9.76676598;-65.06583804
MP. PE?ALVER;CM. PUERTO PIRITU;INSTITUTO EDUCACIONAL PUERTO PIRITU;INSTITUTO EDUCATIVO;Cerrado;10.05894801;-65.04185997
MP. PIRITU;PQ. PIRITU;UNIDAD EDUCATIVA RURAL SAN ANTONIO;UNIDAD EDUCATIVA;Cerrado;9.97733403;-65.04753303
MP. PE?ALVER;CM. PUERTO PIRITU;INSTITUTO UNIVERSITARIO DE ADMINISTRACION INDUSTRIAL (IUTA);INSTITUTO UNIVERSITARIO;Cerrado;10.05912504;-65.04071103
MP. PIRITU;PQ. PIRITU;LICEO BOLIVARIANO ROLINGSON HERRERA;LICEO;Cerrado;10.049994;-65.03580504
MP. PIRITU;PQ. SAN FRANCISCO;UNIDAD EDUCATIVA ESTADAL SAN FRANSISCO DE ASIS;UNIDAD EDUCATIVA;Cerrado;9.83085498;-65.05111998
MP. PIRITU;PQ. PIRITU;ESCUELA BASICA DON FERNANDO PE?ALVER;EDUCACION BASICA;Cerrado;10.00824003;-65.03389101
MP. PIRITU;PQ. PIRITU;CENTRO DE EDUCACION INICIAL PEDRO CELESTINO MU?OZ;EDUCACION INICIAL;Cerrado;10.04141898;-65.03021703
MP. PIRITU;PQ. PIRITU;ESCUELA BASICA PEDRO CELESTINO MUNOZ;EDUCACION BASICA;Cerrado;10.03969503;-65.03000796
MP. CAJIGAL;PQ. SAN PABLO;GRUPO ESCOLAR SAN PABLO;GRUPO ESCOLAR;Cerrado;9.77723901;-65.050623
MP. PIRITU;PQ. PIRITU;UNIDAD EDUCATIVA ESTADAL FRANCISCO FAJARDO;UNIDAD EDUCATIVA;Cerrado;10.05442299;-65.021994
MP. PE?ALVER;CM. PUERTO PIRITU;UNIDAD EDUCATIVA NACIONAL BICENTENARIO 5 DE JULIO DE 1811;UNIDAD EDUCATIVA;Cerrado;10.055007;-65.01975696
MP. PE?ALVER;PQ. SAN MIGUEL;UNIDAD EDUCATIVA BOLIVARIANA  DIEGO ARREAZA MONAGAS;UNIDAD EDUCATIVA;Cerrado;9.90998901;-64.98875097
MP. BOLIVAR;PQ. CAIGUA;ESCUELA BOLIVARIANA NACIONAL SAN JOSE DE CAIGUA NER 182;EDUCACION BASICA;Cerrado;9.80978904;-64.91467503
MP. BOLIVAR;PQ. CAIGUA;ESCUELA BOLIVARIANA PANAMAYAL;EDUCACION BASICA;Cerrado;9.93755799;-64.89242496
MP. BOLIVAR;PQ. CAIGUA;ESCUELA BASICA ANTONIO JOSE MATA MEDINA;EDUCACION BASICA;Cerrado;9.95140701;-64.85080203
MP. CAJIGAL;PQ. SAN PABLO;ESCUELAN NACIONAL  CONCENTRADA SAN LORENZO;EDUCACION BASICA;Cerrado;9.75214197;-65.01652704
MP. CARVAJAL;PQ. SANTA BARBARA;ESCUELA CONCENTRADA MIXTA NUMERO 229-1256-SIN NUMERO SANTA BARBARA;EDUCACION BASICA;Cerrado;9.97031502;-65.69384103
MP. CARVAJAL;PQ. VALLE GUANAPE;ESCUELA BOLIVARIANA EL RINCON;EDUCACION BASICA;Cerrado;9.94977099;-65.67955299
MP. CAJIGAL;CM. ONOTO;ESCUELA BASICA EL CARIBE  UNITARIA NUMERO 2045;EDUCACION BASICA;Cerrado;9.59136399;-65.62059201
MP. CAJIGAL;CM. ONOTO;UNIDAD EDUCATIVA LAS TRINCHERAS  NUMERO 1255-2036-159-2099;UNIDAD EDUCATIVA;Cerrado;9.65195703;-65.53301301
MP. CAJIGAL;CM. ONOTO;ESCUELA BASICA LAS FLORES UNITARIA NUMERO  44-1768;EDUCACION BASICA;Cerrado;9.670977;-65.44444797
MP. CAJIGAL;CM. ONOTO;UNIDAD EDUCATIVA GRANADILLO;UNIDAD EDUCATIVA;Cerrado;9.62977203;-65.30716602
MP. FREITES;CM. CANTAURA;ESCUELA BASICA ALMIRANTE LUIS BRION;EDUCACION BASICA;Cerrado;9.29988198;-64.35855396
MP. SIMON RODRIGUEZ;CM. EL TIGRE;COLEGIO KALIL GIBRAN;EDUCACION BASICA Y SECUNDARIA;Cerrado;8.89201701;-64.19655297
MP. MC GREGOR;PQ. EL CHAPARRO;LICEO ALIRIO ARREAZA ARREAZA;LICEO;Cerrado;9.39017304;-65.18434302
MP. BOLIVAR;PQ. SAN CRISTOBAL;UNIDAD EDUCATIVA CACIQUE CAYAURIMA;UNIDAD EDUCATIVA;Cerrado;9.99527499;-64.65983796
MP. BOLIVAR;PQ. SAN CRISTOBAL;ESCUELA BOLIVARIANA MESONES;EDUCACION BASICA;Cerrado;10.08651303;-64.67329602
MP. BOLIVAR;PQ. SAN CRISTOBAL;ESCUELA DE CAPACITACION DE ADULTOS COMUNA INDIO CUMANAGOTO;EDUCACION BASICA;Cerrado;10.1394;-64.7046
MP. BOLIVAR;PQ. EL CARMEN;UNIDAD EDUCATIVA PADRE SALINERO FE Y ALEGRIA;UNIDAD EDUCATIVA;Cerrado;10.15464699;-64.631925
MP. SOTILLO;PQ. POZUELOS;COMPLEJO EDUCATIVO JOSE ANGEL MONTERO II;EDUCACION BASICA Y SECUNDARIA;Cerrado;10.19675799;-64.63423998
MP. SOTILLO;PQ. POZUELOS;ESCUELA BOLIVARIANA VISTA AL MAR;EDUCACION BASICA;Cerrado;10.19762802;-64.60991703
MP. GUANTA;PQ. GUANTA;UNIDAD EDUCATIVA ESTADAL RURAL VOLCADERO;UNIDAD EDUCATIVA;Cerrado;10.25354196;-64.58288202
MP. FREITES;CM. CANTAURA;LICEO CHAMARIAPA;LICEO;Cerrado;9.289863;-64.35942399
MP. FREITES;CM. CANTAURA;CENTRO DE EDUCACION INICIAL BOLIVARANA AGUSTIN AVELEDO;EDUCACION INICIAL;Cerrado;9.29819898;-64.35169596
MP. FREITES;CM. CANTAURA;UNIVERSIDAD GRAN MARISCAL DE AYACUCHO;SUPERIOR;Cerrado;9.30159702;-64.34447904
MP. FREITES;CM. CANTAURA;ESCUELA BASICA JESUS MARIA PORRAS ALFARO;EDUCACION BASICA;Cerrado;9.30317004;-64.35100899
MP. FREITES;CM. CANTAURA;COLEGIO SANTA JOAQUINA DE VEDRUNA;EDUCACION BASICA Y SECUNDARIA;Cerrado;9.304911;-64.35967698
MP. FREITES;CM. CANTAURA;LICEO DOCTOR FELIPE GUEVARA ROJAS;LICEO;Cerrado;9.30534804;-64.35484398
MP. FREITES;CM. CANTAURA;ESCUELA CAPACITACION FEMENINA GREGORIA DIAZ;EDUCACION BASICA;Cerrado;9.30583899;-64.35785799
MP. FREITES;CM. CANTAURA;ESCUELA BASICA NACIONAL GUEVARA Y LIRA;EDUCACION BASICA;Cerrado;9.306837;-64.35678501
MP. FREITES;CM. CANTAURA;UNIDAD EDUCATIVA PEDRO MARIA FREITES;UNIDAD EDUCATIVA;Cerrado;9.30733596;-64.37118303
MP. FREITES;CM. CANTAURA;UNIDAD EDUCATIVA DOCTOR FELIPE GUEVARA ROJAS;UNIDAD EDUCATIVA;Cerrado;9.31194801;-64.35337599
MP. FREITES;CM. CANTAURA;LICEO BOLIVARIANO JOSE RAMON CAMEJO;LICEO;Cerrado;9.312588;-64.36605699
MP. LIBERTAD;CM. SAN MATEO;UNIDAD EDUCATIVA QUIAMARE;UNIDAD EDUCATIVA;Cerrado;9.87888303;-64.53789696
MP. BOLIVAR;PQ. NARICUAL;UNIDAD EDUCATIVA NACIONAL CURATAQUICHE;UNIDAD EDUCATIVA;Cerrado;9.94916601;-64.57201596
MP. BOLIVAR;PQ. NARICUAL;UNIDAD EDUCATIVA GENERAL NICOLAS ROLANDO;UNIDAD EDUCATIVA;Cerrado;9.95437404;-64.52287497
MP. BOLIVAR;PQ. NARICUAL;ESCUELA NACIONAL BOLIVARIANA CAPIRICUAL;EDUCACION BASICA;Cerrado;10.01292399;-64.57799097
MP. BOLIVAR;PQ. NARICUAL;ESCUELA ESTADAL CARABOBO;EDUCACION BASICA;Cerrado;10.02313998;-64.59720102
MP. BOLIVAR;PQ. NARICUAL;UNIDAD EDUCATIVA ARAGUITA;UNIDAD EDUCATIVA;Cerrado;10.04807196;-64.55826396
MP. BOLIVAR;PQ. NARICUAL;ESCUELA BOLIVARIANA LAS MINAS;EDUCACION BASICA;Cerrado;10.04984703;-64.58018301
MP. BOLIVAR;PQ. NARICUAL;LICEO BOLIVARIANO NARICUAL;LICEO;Cerrado;10.07926002;-64.62801396
MP. BOLIVAR;PQ. SAN CRISTOBAL;CENTRO DE EDUCACION INICIAL MANUELA SAENZ;EDUCACION INICIAL;Cerrado;10.07960904;-64.62867204
MP. MC GREGOR;PQ. EL CHAPARRO;UNIDAD EDUCATIVA AUGUSTO D'AUBETERRE;UNIDAD EDUCATIVA;Cerrado;9.15270102;-65.01615498
MP. MC GREGOR;PQ. EL CHAPARRO;ESCUELA MANUALIDADES TOMAS ALFARO CALATRAVA;EDUCACION BASICA;Cerrado;9.153666;-65.01930903
MP. BOLIVAR;PQ. SAN CRISTOBAL;LICEO BOLIVARIANO JUAN MANUEL CAJIGAL;LICEO;Cerrado;10.14905304;-64.696509
MP. BOLIVAR;PQ. SAN CRISTOBAL;UNIDAD EDUCATIVA DOCTOR EDGAR CALATRAVA GAGO;UNIDAD EDUCATIVA;Cerrado;10.14957;-64.685376
MP. BOLIVAR;PQ. SAN CRISTOBAL;UNIDAD EDUCATIVA NACIONAL  MERCEDES DE PEREZ FREITES;UNIDAD EDUCATIVA;Cerrado;10.15130898;-64.68804504
MP. MC GREGOR;PQ. EL CHAPARRO;ESCUELA  NACIONAL UNITARIA NUMERO 2163;EDUCACION BASICA;Cerrado;9.19172196;-64.90724598
MP. ARAGUA;CM. ARAGUA DE BARCELONA;ESCUELA LAS PALMITAS;EDUCACION BASICA;Cerrado;9.20030202;-64.75114503
MP. BOLIVAR;PQ. EL CARMEN;GRUPO ESCOLAR BOYACA;GRUPO ESCOLAR;Cerrado;10.15177797;-64.68068898
MP. MC GREGOR;PQ. EL CHAPARRO;ESCUELA UNITARIA ESTADAL NUMERO 129;EDUCACION BASICA;Cerrado;9.20605104;-65.14128801
MP. MC GREGOR;PQ. EL CHAPARRO;ESCUELA UNITARIA NUMERO. 2687;EDUCACION BASICA;Cerrado;9.23562198;-64.95040503
MP. BOLIVAR;PQ. EL CARMEN;INSTITUTO NACIONAL DE CAPACITACION Y EDUCACION SOCIALISTA;INSTITUTO EDUCATIVO;Cerrado;10.15642197;-64.68198903
MP. MC GREGOR;PQ. EL CHAPARRO;ESCUELA NACIONAL LA MANUELERA;EDUCACION BASICA;Cerrado;9.24720003;-65.06520102
MP. ARAGUA;CM. ARAGUA DE BARCELONA;ESCUELA MANZANARES;EDUCACION BASICA;Cerrado;9.25987797;-64.93646997
MP. BOLIVAR;PQ. EL CARMEN;ESCUELA PRIMARIA BOLIVARIANA MADRE TERESA DE CALCUTA;EDUCACION BASICA;Cerrado;10.156887;-64.68449202
MP. SANTA ANA;PQ. SANTA ANA;ESCUELA BASICA PEDRO EMILIO COLL;EDUCACION BASICA;Cerrado;9.29600397;-64.66388202
MP. INDEPENDENCIA;PQ. MAMO;ESCUELA RURAL BOLIVARIANA DEL ACEITAL DE YABO;EDUCACION BASICA;Cerrado;8.69344398;-63.107991
MP. SANTA ANA;PQ. SANTA ANA;ESCUELA BASICA ESTADAL EDUARDO DELFIN  MENDEZ;EDUCACION BASICA;Cerrado;9.29973897;-64.65110004
MP. INDEPENDENCIA;CM. SOLEDAD;ESCUELA UNITARIA NACIONAL NUMERO 416 COLORADITO;EDUCACION BASICA;Cerrado;8.75098197;-63.49594401
MP. BOLIVAR;PQ. EL CARMEN;CENTRO DE EDUCACION INICIAL MANUELITA SAENZ;EDUCACION INICIAL;Cerrado;10.15907103;-64.69011999
MP. GUANIPA;CM. SAN JOSE DE GUANIPA;GRUPO ESCOLAR CARLOS FRAGACHAN;GRUPO ESCOLAR;Cerrado;8.89649802;-64.17083403
MP. ANACO;PQ. SAN JOAQUIN;CENTRO DE EDUCACION INICIAL URIMARE;EDUCACION INICIAL;Cerrado;9.30748797;-64.48410504
MP. GUANIPA;CM. SAN JOSE DE GUANIPA;LICEO PROFESOR JESUS LOPEZ CASTRO;LICEO;Cerrado;8.89830504;-64.17186003
MP. INDEPENDENCIA;CM. SOLEDAD;ESCUELA BOLIVARIANA SANTA CRUZ DEL TIGRE;EDUCACION BASICA;Cerrado;8.81833104;-63.48883698
MP. ANACO;PQ. SAN JOAQUIN;UNIDAD EDUCATIVA LAS PARCELAS NUCLEO DE EDUCACION RURAL 595;UNIDAD EDUCATIVA;Cerrado;9.30951801;-64.48140504
MP. GUANIPA;CM. SAN JOSE DE GUANIPA;ESCUELA BASICA VISTA AL SOL;EDUCACION BASICA;Cerrado;8.89913403;-64.17831402
MP. FREITES;CM. CANTAURA;ESCUELA UNITARIA EL MEREY;EDUCACION BASICA;Cerrado;8.819145;-63.65553201
MP. SANTA ANA;PQ. SANTA ANA;LICEO BOLIVARIANO PEDRO GRANADO PEREZ;LICEO;Cerrado;9.31168998;-64.65843999
MP. SIMON RODRIGUEZ;CM. EL TIGRE;UNIDAD EDUCATIVA MIGUEL OTERO SILVA;UNIDAD EDUCATIVA;Cerrado;8.90305398;-64.22560902
MP. ANACO;PQ. SAN JOAQUIN;UNIDAD EDUCATIVA  PEDRO ANTONIO MEDINA;UNIDAD EDUCATIVA;Cerrado;9.31361301;-64.47482397
MP. ANACO;PQ. ANACO;ESCUELA BASICA AGUSTIN CODAZZI;EDUCACION BASICA;Cerrado;9.31898997;-64.44579996
MP. FREITES;CM. CANTAURA;ESCUELA NACIONAL CONCENTRADA NUMERO 1759-1763 LAS COLMENAS;EDUCACION BASICA;Cerrado;9.00882297;-63.69259599
MP. GUANIPA;CM. SAN JOSE DE GUANIPA;CENTRO DE EDUCACION INICIAL LOS SAUCES;EDUCACION INICIAL;Cerrado;8.90362098;-64.17921798
MP. MONAGAS;PQ. SN DIEGO DE CABRUTICA;ESCUELA ESTADAL UNITARIA NUMERO 246;EDUCACION BASICA;Cerrado;8.55583497;-64.82842398
MP. GUANIPA;CM. SAN JOSE DE GUANIPA;ESCUELA BASICA EL MIRADOR;EDUCACION BASICA;Cerrado;8.90547804;-64.172556
MP. MONAGAS;PQ. SN DIEGO DE CABRUTICA;UNIDAD EDUCATIVA COGOLLAL NUCLEO DE EDUCACION RURAL 445;UNIDAD EDUCATIVA;Cerrado;8.60112198;-65.08445904
MP. SIMON RODRIGUEZ;CM. EL TIGRE;UNIDAD EDUCATIVA LA BOMBA NUMERO 1;UNIDAD EDUCATIVA;Cerrado;8.92867203;-64.23362199
MP. BOLIVAR;PQ. SAN CRISTOBAL;CENTRO DE EDUCACION  INICIAL FELICIDAD MATA DE GOMEZ;EDUCACION INICIAL;Cerrado;10.08127503;-64.68243399
MP. FREITES;CM. CANTAURA;ESCUELA BOLIVARIANA LAS POTOCAS;EDUCACION BASICA;Cerrado;9.10549503;-64.25787897
MP. BOLIVAR;PQ. EL CARMEN;UNIDAD EDUCATIVA GENERAL FRANCISCO DE MIRANDA;UNIDAD EDUCATIVA;Cerrado;10.16309997;-64.69462296
MP. FREITES;CM. CANTAURA;ESCUELA BOLIVARIANA MARE MARE;EDUCACION BASICA;Cerrado;9.20367;-64.28958597
MP. BOLIVAR;PQ. SAN CRISTOBAL;ESCUELA NACIONAL ILUSTRE SIMON BOLIVAR;EDUCACION BASICA;Cerrado;10.08437697;-64.68166404
MP. BOLIVAR;PQ. SAN CRISTOBAL;LICEO BOLIVARIANO MESONES;LICEO;Cerrado;10.08468801;-64.69264899
MP. BOLIVAR;PQ. EL CARMEN;COMPLEJO EDUCATIVO ESTADAL PROFESOR PEDRO ARNAL;EDUCACION BASICA Y SECUNDARIA;Cerrado;10.13438097;-64.66182903
MP. BOLIVAR;PQ. EL CARMEN;ESCUELA BASICA NACIONAL NUMERO 77 ANGOSTURA;EDUCACION BASICA;Cerrado;10.13729202;-64.63917099
MP. SOTILLO;PQ. POZUELOS;ESCUELA BASICA VALLE DE LAS CARMELITAS;EDUCACION BASICA;Cerrado;10.14065397;-64.61443899
MP. L/DIEGO BAUTISTA;PQ. LECHERIAS;CENTRO DE EDUCACION INICIAL VIRGEN DEL VALLE;EDUCACION INICIAL;Cerrado;10.17710298;-64.69004304
MP. BOLIVAR;PQ. SAN CRISTOBAL;UNIDAD EDUCATIVA LOS ALEROS;UNIDAD EDUCATIVA;Cerrado;10.08880902;-64.67335803
MP. BOLIVAR;PQ. EL CARMEN;ESCUELA CONCENTRADA LA PRADERA;EDUCACION BASICA;Cerrado;10.14066801;-64.61656803
MP. SOTILLO;PQ. POZUELOS;ESCUELA BOLIVARIANA PUTUCUAL;EDUCACION BASICA;Cerrado;10.14271002;-64.61647299
MP. BOLIVAR;PQ. EL CARMEN;ESCUELA ANTONIO JOSE DE SUCRE;EDUCACION BASICA;Cerrado;10.14363603;-64.67234499
MP. BOLIVAR;PQ. SAN CRISTOBAL;UNIDAD EDUCATIVA NUESTRA SE?ORA DE COROMOTO;UNIDAD EDUCATIVA;Cerrado;10.09118502;-64.67420898
MP. BOLIVAR;PQ. EL CARMEN;CENTRO DE EDUCACION INICIAL GIORGINA DE MATA;EDUCACION INICIAL;Cerrado;10.14528798;-64.67266701
MP. L/DIEGO BAUTISTA;PQ. LECHERIAS;UNIDAD EDUCATIVA MENCA DE LEONI;UNIDAD EDUCATIVA;Cerrado;10.19121903;-64.69435404
MP. BOLIVAR;PQ. SAN CRISTOBAL;ESCUELA  PUENTE AYALA;EDUCACION BASICA;Cerrado;10.09513701;-64.65903102
MP. L/DIEGO BAUTISTA;PQ. LECHERIAS;COLEGIO JUAN XXIII;EDUCACION BASICA Y SECUNDARIA;Cerrado;10.19178396;-64.69304202
MP. BOLIVAR;PQ. EL CARMEN;UNIDAD EDUCATIVA PROFESOR HECTOR JOSE REYES BARRERO;UNIDAD EDUCATIVA;Cerrado;10.14715998;-64.66863897
MP. L/DIEGO BAUTISTA;PQ. LECHERIAS;UNIDAD EDUCATIVA MARIA AUXILIADORA;UNIDAD EDUCATIVA;Cerrado;10.19573901;-64.69471098
MP. BOLIVAR;PQ. SAN CRISTOBAL;ESCUELA RURAL DE EDUCACION BASICA LA PONDEROSA;EDUCACION BASICA;Cerrado;10.10131497;-64.67502897
MP. BOLIVAR;PQ. EL CARMEN;GRUPO ESCOLAR ANGEL CELESTINO BELLO;GRUPO ESCOLAR;Cerrado;10.14850899;-64.67312799
MP. FREITES;PQ. LIBERTADOR;ESCUELA NACIONAL UNITARIA NUMERO 1760 EL BUCARE;EDUCACION BASICA;Cerrado;9.98614197;-64.09160397
MP. BOLIVAR;PQ. SAN CRISTOBAL;CENTRO DE EDUCACION INICIAL LA PONDEROSA;EDUCACION INICIAL;Cerrado;10.10205702;-64.676421
MP. BOLIVAR;PQ. EL CARMEN;CENTRO DE EDUCACION INICIAL SORFANNY ALFONSO;EDUCACION INICIAL;Cerrado;10.14912603;-64.61976699
MP. L/DIEGO BAUTISTA;PQ. LECHERIAS;COLEGIO FRANCISCO LINARES ALCANTARA;EDUCACION BASICA Y SECUNDARIA;Cerrado;10.19616399;-64.69564896
MP. FREITES;PQ. LIBERTADOR;UNIDAD EDUCATIVA NACIONAL RAFAEL CABALLERO SARMIENTO;UNIDAD EDUCATIVA;Cerrado;9.94833198;-64.05899004
MP. BOLIVAR;PQ. SAN CRISTOBAL;UNIDAD EDUCATIVA DOCTOR LUIS BELTRAN PRIETO FIGUEROA;UNIDAD EDUCATIVA;Cerrado;10.10343996;-64.67586597
MP. SOTILLO;PQ. POZUELOS;ESCUELA CONCENTRADA PROVISOR;EDUCACION BASICA;Cerrado;10.14984603;-64.62315396
MP. SIMON RODRIGUEZ;CM. EL TIGRE;ESCUELA UNITARIA NUMERO 197 LAS PIEDRAS DEL CARIS;EDUCACION BASICA;Cerrado;8.69758497;-64.17704997
MP. SOTILLO;PQ. POZUELOS;ESCUELA CONCENTRADA MIXTA NUMERO 2128 CARRIZALES;EDUCACION BASICA;Cerrado;10.11417102;-64.72355301
MP. SIMON RODRIGUEZ;CM. EL TIGRE;ESCUELA RURAL LA AVENTAZON;EDUCACION BASICA;Cerrado;8.75904597;-64.22176998
MP. FREITES;PQ. URICA;ESCUELA CONCENTRADA NACIONAL GUAYABAL;EDUCACION BASICA;Cerrado;9.73599399;-64.02768102
MP. SIMON RODRIGUEZ;CM. EL TIGRE;ESCUELA BOLIVARIANA LA ALFARERIA;EDUCACION BASICA;Cerrado;8.858817;-64.25793999
MP. BOLIVAR;PQ. SAN CRISTOBAL;UNIDAD EDUCATIVA ESTADAL PROFESOR HECTOR GARCIA SALAS;UNIDAD EDUCATIVA;Cerrado;10.11816;-64.67969097
MP. SIMON RODRIGUEZ;CM. EL TIGRE;LICEO JOSE CELESTINO HURTADO;LICEO;Cerrado;8.86185999;-64.26180504
MP. BOLIVAR;PQ. SAN CRISTOBAL;UNIDAD EDUCATIVA RIO NEVERI;UNIDAD EDUCATIVA;Cerrado;10.11914901;-64.66977198
MP. PIRITU;PQ. PIRITU;ESCUELA BOLIVARIANA EL MEREY;EDUCACION BASICA;Cerrado;9.74034801;-63.970596
MP. SIMON RODRIGUEZ;CM. EL TIGRE;ESCUELA MENEVEN;EDUCACION BASICA;Cerrado;8.86657104;-64.25451099
MP. GUANTA;PQ. CHORRERON;CENTRO DE EDUCACION INICIAL COLOMBIA;EDUCACION INICIAL;Cerrado;10.11975903;-64.68097104
MP. GUANTA;PQ. CHORRERON;UNIDAD EDUCATIVA NACIONAL BARRIO COLOMBIA;UNIDAD EDUCATIVA;Cerrado;10.11985596;-64.68212196
MP. BOLIVAR;PQ. SAN CRISTOBAL;UNIDAD EDUCATIVA GENERAL  JOSE ANTONIO PAEZ;UNIDAD EDUCATIVA;Cerrado;10.12070304;-64.71816399
MP. BOLIVAR;PQ. SAN CRISTOBAL;ESCUELA BASICA ANTONIO GUZMAN BLANCO;EDUCACION BASICA;Cerrado;10.12284099;-64.67913504
MP. BOLIVAR;PQ. SAN CRISTOBAL;CENTRO DE EDUCACION INICIAL PADRE PIO;EDUCACION INICIAL;Cerrado;10.123389;-64.68452199
MP. BOLIVAR;PQ. SAN CRISTOBAL;ESCUELA ESTADAL DOMINGO MAZA VELASQUEZ;EDUCACION BASICA;Cerrado;10.12435803;-64.68183198
MP. BOLIVAR;PQ. SAN CRISTOBAL;COMPLEJO EDUCATIVO NACIONAL MANUEL FARIAS LUCES;EDUCACION BASICA Y SECUNDARIA;Cerrado;10.12534398;-64.68527601
MP. BOLIVAR;PQ. SAN CRISTOBAL;GRUPO ESCOLAR JUAN MANUEL CAJIGAL;GRUPO ESCOLAR;Cerrado;10.12616298;-64.686573
MP. BOLIVAR;PQ. NARICUAL;UNIDAD EDUCATIVA JESUS RAFAEL ALBORNOZ;UNIDAD EDUCATIVA;Cerrado;10.07997102;-64.62701298
MP. BOLIVAR;PQ. EL CARMEN;ESCUELA BOLIVARIANA VALLES DEL NEVERI;EDUCACION BASICA;Cerrado;10.08957798;-64.61082297
MP. BOLIVAR;PQ. EL CARMEN;ESCUELA BOLIVARIANA PICAS DEL NEVERI;EDUCACION BASICA;Cerrado;10.09175598;-64.62771201
MP. BOLIVAR;PQ. EL CARMEN;ESCUELA BOLIVARIANA EL ENEAL;EDUCACION BASICA;Cerrado;10.11363597;-64.61536599
MP. SOTILLO;PQ. POZUELOS;UNIDAD EDUCATIVA NACIONAL RURAL BOLIVARIANA LOMAS DE SANTA MARIA;UNIDAD EDUCATIVA;Cerrado;10.12128003;-64.59540903
MP. SOTILLO;PQ. POZUELOS;ESCUELA ESTADAL MIGUEL JOSE SANZ;EDUCACION BASICA;Cerrado;10.12224798;-64.58882202
MP. BOLIVAR;PQ. EL CARMEN;ESCUELA NACIONAL BOLIVARIANA MIGUEL ANGEL PEREZ;EDUCACION BASICA;Cerrado;10.12795101;-64.64750499
MP. SOTILLO;PQ. POZUELOS;ESCUELA BASICA LA FLORESTA;EDUCACION BASICA;Cerrado;10.13214501;-64.60569999
MP. SOTILLO;PQ. POZUELOS;ESCUELA NACIONAL CREACION LAS CHARAS;EDUCACION BASICA;Cerrado;10.19165004;-64.61638497
MP. L/DIEGO BAUTISTA;PQ. LECHERIAS;UNIDAD EDUCATIVA MANUEL GUAL;UNIDAD EDUCATIVA;Cerrado;10.19206899;-64.68949197
MP. SOTILLO;PQ. POZUELOS;ESCUELA FE Y ALEGRIA;EDUCACION BASICA;Cerrado;10.19283399;-64.63676304
MP. SOTILLO;CM. PUERTO LA CRUZ;UNIDAD EDUCATIVA INTEGRAL COLEGIO LAURA VICU?A;UNIDAD EDUCATIVA;Cerrado;10.19375298;-64.64102904
MP. SOTILLO;PQ. POZUELOS;ESCUELA NACIONAL CAMPO ALEGRE;EDUCACION BASICA;Cerrado;10.19428398;-64.63253799
MP. SOTILLO;PQ. POZUELOS;PRE-ESCOLAR LUIS BELTRAN PRIETO FIGUEROA;EDUCACION INICIAL;Cerrado;10.19440602;-64.61447301
MP. L/DIEGO BAUTISTA;PQ. LECHERIAS;UNIDAD EDUCATIVA LICENCIADO DIEGO BAUTISTA URBANEJA;UNIDAD EDUCATIVA;Cerrado;10.19497797;-64.69281198
MP. SOTILLO;PQ. POZUELOS;UNIDAD EDUCATIVA  BATALLA DE LA VICTORIA;UNIDAD EDUCATIVA;Cerrado;10.19501604;-64.61296902
MP. SOTILLO;CM. PUERTO LA CRUZ;ESCUELA GRADUADA MARIA GUZMAN DE MARCANO;EDUCACION BASICA;Cerrado;10.19583297;-64.63830897
MP. SOTILLO;PQ. POZUELOS;GRUPO ESCOLAR INES MARIA DE POTENTINI;GRUPO ESCOLAR;Cerrado;10.19622204;-64.63214298
MP. SOTILLO;CM. PUERTO LA CRUZ;GRUPO ESCOLAR BELLO MONTE;GRUPO ESCOLAR;Cerrado;10.19660004;-64.64690001
MP. FREITES;CM. CANTAURA;ESCUELA  NACIONAL  CONCENTRADA 2060-213-1752 MORICHALOTE;EDUCACION BASICA;Cerrado;9.01198296;-63.47504196
MP. FREITES;CM. CANTAURA;ESCUELA BOLIVARIANA LOS CHAGUARAMOS;EDUCACION BASICA;Cerrado;9.175761;-63.78484104
MP. INDEPENDENCIA;CM. SOLEDAD;ESCUELA NACIONAL CONCENTRADA NUMERO 58-195 LA CANOA;EDUCACION BASICA;Cerrado;8.59906701;-63.87330897
MP. INDEPENDENCIA;PQ. MAMO;ESCUELA INTEGRAL BOLIVARIANA PALITAL;EDUCACION BASICA;Cerrado;8.66752398;-63.97814502
MP. GUANIPA;CM. SAN JOSE DE GUANIPA;ESCUELA UNITARIA LA PE?A NUCLEO DE EDUCACION RURAL 239;EDUCACION BASICA;Cerrado;8.667846;-63.978552
MP. FREITES;CM. CANTAURA;ESCUELA UNITARIA LOMA LARGA;EDUCACION BASICA;Cerrado;9.12806496;-63.99137799
MP. FREITES;CM. CANTAURA;ESCUELA BASICA  FE Y ALEGRIA;EDUCACION BASICA;Cerrado;9.21613797;-64.05203799
MP. FREITES;CM. CANTAURA;UNIDAD EDUCATIVA MERECURAL;UNIDAD EDUCATIVA;Cerrado;9.26908398;-63.94533102
MP. FREITES;PQ. SANTA ROSA;ESCUELA NACIONAL INDIGENA LA ISLA;EDUCACION BASICA;Cerrado;9.60430599;-64.06298397
MP. FREITES;PQ. URICA;ESCUELA NACIONAL UNITARIA NUMERO 1860 LA LEONA;EDUCACION BASICA;Cerrado;9.63878301;-64.05033303
MP. FREITES;PQ. SANTA ROSA;ESCUELA UNITARIA NUMERO 62 LA CEIBA;EDUCACION BASICA;Cerrado;9.69372;-64.23332697
MP. FREITES;PQ. URICA;ESCUELA  BOLIVARIANA EL SAMAN;EDUCACION BASICA;Cerrado;9.801441;-64.136997
MP. LIBERTAD;PQ. SANTA INES;ESCUELA BASICA MANUEL HENRIQUEZ BUCK;EDUCACION BASICA;Cerrado;9.90472599;-64.35453897
MP. SOTILLO;PQ. POZUELOS;ESCUELA NACIONAL UNITARIA NUMERO 2080 SAN PEDRO;EDUCACION BASICA;Cerrado;9.98024202;-64.394109
MP. SANTA ANA;PQ. PUEBLO NUEVO;ESCUELA OFICIAL UNITARIA NUCLEO EDUCACION RURAL 144;EDUCACION BASICA;Cerrado;9.99086697;-64.37673198
MP. MIRANDA;PQ. EL PAO;ESCUELA BOLIVARIANA INDIGENA SANTA CRUZ DE CACHIPO;EDUCACION BASICA;Cerrado;8.727867;-64.51543296
MP. MIRANDA;PQ. EL PAO;GRUPO ESCOLAR CREACION EL PAO;GRUPO ESCOLAR;Cerrado;8.788995;-64.628766
MP. MIRANDA;CM. PARIAGUAN;UNIDAD EDUCATIVA BOLIVARIANA LA SIERRA;UNIDAD EDUCATIVA;Cerrado;8.81826597;-64.76396796
MP. MIRANDA;CM. PARIAGUAN;GRUPO ESCOLAR BOLET PERAZA;GRUPO ESCOLAR;Cerrado;8.82772398;-64.72709604
MP. MIRANDA;CM. PARIAGUAN;GRUPO ESCOLAR FREITES;GRUPO ESCOLAR;Cerrado;8.82986598;-64.71435798
MP. SIMON RODRIGUEZ;CM. EL TIGRE;PREESCOLAR FUNDA MASIN;EDUCACION INICIAL;Cerrado;8.86999203;-64.26238401
MP. SIMON RODRIGUEZ;CM. EL TIGRE;ESCUELA RURAL DE EDUCACION  BASICA LA ESPERANZA;EDUCACION BASICA;Cerrado;8.870976;-64.251045
MP. SIMON RODRIGUEZ;CM. EL TIGRE;JARDIN DE INFANCIA PUEBLO AJURO;EDUCACION INICIAL;Cerrado;8.87171697;-64.263213
MP. BOLIVAR;PQ. EL CARMEN;UNIDAD EDUCATIVA MARIA FRANCIA;UNIDAD EDUCATIVA;Cerrado;10.15036596;-64.67692302
MP. ARAGUA;CM. ARAGUA DE BARCELONA;ESCUELA BUENOS AIRES NUCLEO ESCOLAR RURAL 001;EDUCACION BASICA;Cerrado;9.44326602;-64.83029904
MP. BOLIVAR;PQ. EL CARMEN;ESCUELA NACIONAL TRONCONAL II;EDUCACION BASICA;Cerrado;10.15169697;-64.66708503
MP. SIMON RODRIGUEZ;CM. EL TIGRE;ESCUELA NACIONAL FELIPE WALKER;EDUCACION BASICA;Cerrado;8.87173596;-64.26336897
MP. ARAGUA;CM. ARAGUA DE BARCELONA;UNIDAD EDUCATIVA NUESTRA SE?ORA DEL CARMEN;UNIDAD EDUCATIVA;Cerrado;9.45582696;-64.82831697
MP. BOLIVAR;PQ. EL CARMEN;ESCUELA BASICA EL ESFUERZO II;EDUCACION BASICA;Cerrado;10.151991;-64.65981096
MP. SIMON RODRIGUEZ;CM. EL TIGRE;ESCUELA DE MANUALIDADES FEMENINAS DO?A EVA DE LISCANO;EDUCACION BASICA;Cerrado;8.87405499;-64.26180198
MP. ARAGUA;CM. ARAGUA DE BARCELONA;ESCUELA BOLIVARIANA BARRIO SUCRE;EDUCACION BASICA;Cerrado;9.45344601;-64.82559501
MP. SIMON RODRIGUEZ;CM. EL TIGRE;ESCUELA NACIONAL LA FLORIDA;EDUCACION BASICA;Cerrado;8.87445099;-64.26110898
MP. ARAGUA;CM. ARAGUA DE BARCELONA;ESCUELA CONCENTRADA NUMERO 2084-1852 LAGUNA NUEVA;EDUCACION BASICA;Cerrado;9.45842103;-64.82512998
MP. SIMON RODRIGUEZ;CM. EL TIGRE;UNIDAD EDUCATIVA HERNANDEZ PARES;UNIDAD EDUCATIVA;Cerrado;8.87770404;-64.26836397
MP. BOLIVAR;PQ. EL CARMEN;UNIDAD EDUCATIVA GENERAL NICOLAS ROLANDO MONTEVERDE;UNIDAD EDUCATIVA;Cerrado;10.15549902;-64.67842197
MP. ARAGUA;CM. ARAGUA DE BARCELONA;UNIDAD EDUCATIVA  DOCTOR ALIRIO ARREAZA;UNIDAD EDUCATIVA;Cerrado;9.45713097;-64.82364696
MP. BOLIVAR;PQ. EL CARMEN;LICEO NACIONAL DOCTOR RAFAEL ANTONIO FERNANDEZ PADILLA;LICEO;Cerrado;10.15679799;-64.66991004
MP. SIMON RODRIGUEZ;CM. EL TIGRE;CENTRO PREESCOLAR ANDRES BELLO;EDUCACION INICIAL;Cerrado;8.87796702;-64.24762896
MP. ARAGUA;CM. ARAGUA DE BARCELONA;UNIDAD EDUCATIVA NARCISO FRAGACHAN;UNIDAD EDUCATIVA;Cerrado;9.45604503;-64.822932
MP. BOLIVAR;PQ. EL CARMEN;INSTITUTO UNIVERSITARIO DE TECNOLOGIA JUAN PABLO PEREZ ALFONZO;INSTITUTO UNIVERSITARIO;Cerrado;10.156977;-64.63526202
MP. SIMON RODRIGUEZ;CM. EL TIGRE;COLEGIO DIVINO MAESTRO;EDUCACION BASICA Y SECUNDARIA;Cerrado;8.88192801;-64.26655596
MP. ARAGUA;CM. ARAGUA DE BARCELONA;ESCUELA NACIONAL CONCENTRADA VENTORRILLO;EDUCACION BASICA;Cerrado;9.43992396;-64.81690002
MP. BOLIVAR;PQ. EL CARMEN;ESCUELA NACIONAL JESUS RAFAEL VALLADARES GIL TRONCONAL III-B;EDUCACION BASICA;Cerrado;10.16156403;-64.66744296
MP. SIMON RODRIGUEZ;CM. EL TIGRE;INSTITUTO ALBERTO CARNEVALLI;INSTITUTO EDUCATIVO;Cerrado;8.88310701;-64.25948097
MP. ARAGUA;CM. ARAGUA DE BARCELONA;ESCUELA ESTADAL CONCENTRADA NUMERO 5 Y 2095 SANTA RITA;EDUCACION BASICA;Cerrado;9.46570599;-64.81483803
MP. BOLIVAR;PQ. EL CARMEN;INSTITUTO DE EDUCACION ESPECIAL BARCELONA;INSTITUTO EDUCATIVO;Cerrado;10.1628;-64.67270004
MP. ARAGUA;CM. ARAGUA DE BARCELONA;ESCUELA NACIONAL GUACAMAYO;EDUCACION BASICA;Cerrado;9.43324497;-64.81326303
MP. BOLIVAR;PQ. EL CARMEN;ESCUELA NACIONAL PRIMARIA DOCTOR JOSE MARIA VARGAS;EDUCACION BASICA;Cerrado;10.16293599;-64.66987296
MP. ARAGUA;CM. ARAGUA DE BARCELONA;ESCUELA BASICA NACIONAL 2901 LA GLORIA;EDUCACION BASICA;Cerrado;9.48043197;-64.79835003
MP. SIMON RODRIGUEZ;CM. EL TIGRE;INSTITUTO DE EDUCACION ESPECIAL EL TIGRE;INSTITUTO EDUCATIVO;Cerrado;8.88482898;-64.26209601
MP. ARAGUA;CM. ARAGUA DE BARCELONA;ESCUELA CONCENTRADA MIXTA NUMERO 1 LOS DIVIDIVES;EDUCACION BASICA;Cerrado;9.50590197;-64.73873997
MP. SOTILLO;CM. PUERTO LA CRUZ;CENTRO DE EDUCACION INICIAL LUIGGI EMILIO CECCATO;EDUCACION INICIAL;Cerrado;10.19784402;-64.64628
MP. SIMON RODRIGUEZ;CM. EL TIGRE;UNIDAD EDUCATIVA NUESTRA SE?ORA DEL PILAR;UNIDAD EDUCATIVA;Cerrado;8.885169;-64.24555302
MP. ARAGUA;CM. ARAGUA DE BARCELONA;ESCUELA NACIONAL UNITARIA NUMERO 1859;EDUCACION BASICA;Cerrado;9.53795898;-64.65390201
MP. BOLIVAR;PQ. EL CARMEN;ESCUELA  BASICA ROMULO GALLEGOS;EDUCACION BASICA;Cerrado;10.16411202;-64.67371299
MP. L/DIEGO BAUTISTA;PQ. LECHERIAS;UNIDAD EDUCATIVA TOMAS ALFARO CALATRAVA;UNIDAD EDUCATIVA;Cerrado;10.19822202;-64.69376499
MP. SIMON RODRIGUEZ;CM. EL TIGRE;UNIVERSIDAD NACIONAL ABIERTA;SUPERIOR;Cerrado;8.88519501;-64.26466398
MP. SANTA ANA;PQ. SANTA ANA;ESCUELA OFICIAL SIN NUMERO LECHOZAL;EDUCACION BASICA;Cerrado;9.37769202;-64.60255098
MP. BOLIVAR;PQ. EL CARMEN;LICEO BOLIVARIANO DOCTOR JESUS MARIA BIANCO;LICEO;Cerrado;10.16422902;-64.66900203
MP. SOTILLO;PQ. POZUELOS;UNIDAD EDUCATIVA DOCTOR RAUL LEONI;UNIDAD EDUCATIVA;Cerrado;10.19872701;-64.63077201
MP. SIMON RODRIGUEZ;CM. EL TIGRE;UNIDAD EDUCATIVA JOSE MERCEDES SANTELIZ PE?A;UNIDAD EDUCATIVA;Cerrado;8.885718;-64.24751898
MP. ANACO;PQ. SAN JOAQUIN;UNIDAD EDUCATIVA DIEGO JIMENEZ SALAZAR;UNIDAD EDUCATIVA;Cerrado;9.38459403;-64.52054802
MP. SOTILLO;PQ. POZUELOS;CENTRO DE EDUCACION INICIAL PROFESOR NARCISO RODRIGUEZ;EDUCACION INICIAL;Cerrado;10.19883699;-64.62381402
MP. BOLIVAR;PQ. EL CARMEN;CENTRO DE EDUCACION INICIAL MENCA DE LEONI;EDUCACION INICIAL;Cerrado;10.16702496;-64.66961997
MP. SIMON RODRIGUEZ;CM. EL TIGRE;GRUPO ESCOLAR ESTADO TRUJILLO;GRUPO ESCOLAR;Cerrado;8.88586299;-64.26162801
MP. ANACO;PQ. ANACO;UNIDAD EDUCATIVA MIXTA 9411 ROMULO GALLEGOS;UNIDAD EDUCATIVA;Cerrado;9.44567001;-64.49290002
MP. SOTILLO;PQ. POZUELOS;COLEGIO SANTA TERESITA;EDUCACION BASICA Y SECUNDARIA;Cerrado;10.19971701;-64.62736902
MP. SIMON RODRIGUEZ;CM. EL TIGRE;GRUPO ESCOLAR DOCTOR RAFAEL  FERNANDEZ PADILLA;GRUPO ESCOLAR;Cerrado;8.88630102;-64.26563796
MP. BOLIVAR;PQ. EL CARMEN;CENTRO DE EDUCACION INICIAL GENERAL JOSE ANTONIO ANZOATEGUI;EDUCACION INICIAL;Cerrado;10.16744103;-64.66956399
MP. ANACO;PQ. ANACO;UNIDAD EDUCATIVA JOSE ANTONIO ANZOATEGUI;UNIDAD EDUCATIVA;Cerrado;9.42170598;-64.488393
MP. SOTILLO;PQ. POZUELOS;UNIDAD EDUCATIVA NUESTRA SE?ORA DEL VALLE;UNIDAD EDUCATIVA;Cerrado;10.19982897;-64.61664102
MP. ANACO;PQ. ANACO;ESCUELA BOLIVARIANA PRIMERO DE MAYO;EDUCACION BASICA;Cerrado;9.41613201;-64.48832802
MP. SIMON RODRIGUEZ;CM. EL TIGRE;UNIDAD EDUCATIVA MANUEL ANTONIO CARRE?O;UNIDAD EDUCATIVA;Cerrado;8.88670602;-64.25817003
MP. SOTILLO;PQ. POZUELOS;GRUPO ESCOLAR TOMAS MOGNA;GRUPO ESCOLAR;Cerrado;10.20112002;-64.617246
MP. ANACO;PQ. ANACO;UNIDAD EDUCATIVA NARCISO FRAGACHAN;UNIDAD EDUCATIVA;Cerrado;9.43111602;-64.48614696
MP. SOTILLO;PQ. POZUELOS;CENTRO DE EDUCACION INICIAL NACIONAL JOSEFA JOAQUINA SANCHEZ;EDUCACION INICIAL;Cerrado;10.20170601;-64.615464
MP. ANACO;PQ. ANACO;UNIDAD EDUCATIVA DOCTOR CRUZ DEL VALLE RODRIGUEZ;UNIDAD EDUCATIVA;Cerrado;9.42965604;-64.48600602
MP. BOLIVAR;PQ. EL CARMEN;CENTRO DE EDUCACION INICIAL SIMONCITO TRONCONAL V;EDUCACION INICIAL;Cerrado;10.16789301;-64.66755204
MP. ANACO;PQ. ANACO;ESCUELA BASICA ARTESANAL URBANA ANACO;EDUCACION BASICA;Cerrado;9.42341697;-64.48436703
MP. SOTILLO;CM. PUERTO LA CRUZ;ESCUELA BOLIVARIANA DOCTOR SEVERIANO HERNANDEZ;EDUCACION BASICA;Cerrado;10.20228201;-64.63786896
MP. SOTILLO;PQ. POZUELOS;GRUPO ESCOLAR ANDRES ELOY BLANCO;GRUPO ESCOLAR;Cerrado;10.20234798;-64.62705096
MP. SOTILLO;PQ. POZUELOS;INSTITUTO NACIONAL DE COOPERACION EDUCATIVA;INSTITUTO EDUCATIVO;Cerrado;10.20234897;-64.63316898
MP. SOTILLO;PQ. POZUELOS;GRUPO  ESCOLAR CELESTINO GONZALEZ ORTIZ;GRUPO ESCOLAR;Cerrado;10.20276702;-64.623132
MP. SOTILLO;CM. PUERTO LA CRUZ;CENTRO DE EDUCACION INICIAL EL PARAISO I;EDUCACION INICIAL;Cerrado;10.20282696;-64.65403602
MP. SOTILLO;PQ. POZUELOS;CENTRO DE CAPACITACION DE ADULTO OLIMPIA COVA DE NU?EZ;CENTRO DE CAPACITACION;Cerrado;10.20310002;-64.61540001
MP. SOTILLO;PQ. POZUELOS;ESCUELA TECNICA INDUSTRIAL ROBINSONIANA EUGENIO MENDOZA;EDUCACION BASICA;Cerrado;10.20507201;-64.61929899
MP. SOTILLO;CM. PUERTO LA CRUZ;GRUPO ESCOLAR RAFAEL MARCANO RODRIGUEZ;GRUPO ESCOLAR;Cerrado;10.20530997;-64.65269502
MP. SOTILLO;CM. PUERTO LA CRUZ;GRUPO ESCOLAR RAFAEL MARCANO RODRIGUEZ II;GRUPO ESCOLAR;Cerrado;10.20539997;-64.65259998
MP. SOTILLO;CM. PUERTO LA CRUZ;GRUPO ESCOLAR CREACION PARAISO;GRUPO ESCOLAR;Cerrado;10.206396;-64.65365703
MP. SOTILLO;CM. PUERTO LA CRUZ;UNIDAD EDUCATIVA JOSEFA MATILDE SALAZAR;UNIDAD EDUCATIVA;Cerrado;10.20674799;-64.65909501
MP. SOTILLO;PQ. POZUELOS;LICEO PEDRO MARIA FREITES;LICEO;Cerrado;10.20676104;-64.62491004
MP. BOLIVAR;PQ. BERGANTIN;NUCLEO ESCOLAR RURAL 594 EL ZAMURO;EDUCACION BASICA;Cerrado;10.02946203;-64.28542698
MP. LIBERTAD;PQ. SANTA INES;ESCUELA MIXTA ESTADAL NUMERO 72 BUENOS AIRES;EDUCACION BASICA;Cerrado;10.03023702;-64.223577
MP. BOLIVAR;PQ. BERGANTIN;ESCUELA ESTADAL UNITARIA NUMERO 284 CERRO NEGRO;EDUCACION BASICA;Cerrado;10.03139604;-64.24821702
MP. GUANTA;PQ. CHORRERON;UNIDAD EDUCATIVA ESTADAL 2058, VALLE SECO;UNIDAD EDUCATIVA;Cerrado;10.23426198;-64.51694199
MP. GUANIPA;CM. SAN JOSE DE GUANIPA;ESCUELA BASICA LOS MELONES;EDUCACION BASICA;Cerrado;8.78272704;-64.04856804
MP. GUANIPA;CM. SAN JOSE DE GUANIPA;UNIDAD EDUCATIVA PROFESOR ANDRES HERNANDEZ;UNIDAD EDUCATIVA;Cerrado;8.87275503;-64.14398001
MP. GUANIPA;CM. SAN JOSE DE GUANIPA;ESCUELA RURAL BASICA EL BASQUERO;EDUCACION BASICA;Cerrado;8.87897097;-64.12944303
MP. GUANIPA;CM. SAN JOSE DE GUANIPA;ESCUELA LA FLORIDA;EDUCACION BASICA;Cerrado;8.88170904;-64.14775902
MP. GUANIPA;CM. SAN JOSE DE GUANIPA;ESCUELA BASICA CIUDAD DE LA ASUNCION;EDUCACION BASICA;Cerrado;8.88761304;-64.14884001
MP. GUANIPA;CM. SAN JOSE DE GUANIPA;UNIDAD EDUCATIVA  DOCTOR JOSE MANUEL COVA MAZA;UNIDAD EDUCATIVA;Cerrado;8.88761502;-64.15335
MP. GUANIPA;CM. SAN JOSE DE GUANIPA;UNIDAD EDUCATIVA INSTITUTO RAFAEL RANGEL;UNIDAD EDUCATIVA;Cerrado;8.88852204;-64.15102197
MP. GUANIPA;CM. SAN JOSE DE GUANIPA;UNIDAD EDUCATIVA SAN JOSE;UNIDAD EDUCATIVA;Cerrado;8.89021503;-64.14911703
MP. GUANIPA;CM. SAN JOSE DE GUANIPA;UNIDAD EDUCATIVA ESTADAL LIBERTADOR;UNIDAD EDUCATIVA;Cerrado;8.89276401;-64.153494
MP. GUANIPA;CM. SAN JOSE DE GUANIPA;INSTITUTO DE EDUCACION ESPECIAL AGUAPANE;INSTITUTO EDUCATIVO;Cerrado;8.89441902;-64.14976899
MP. FREITES;CM. CANTAURA;COLEGIO SAN TOME;EDUCACION BASICA Y SECUNDARIA;Cerrado;8.92882098;-64.12745097
MP. FREITES;CM. CANTAURA;ESCUELA BASICA RURAL GUICO NUCLEO ESCOLAR RURAL - 239 GUICO;EDUCACION BASICA;Cerrado;9.00843201;-64.11445596
MP. FREITES;CM. CANTAURA;UNIDAD EDUCATIVA GRANADILLO;UNIDAD EDUCATIVA;Cerrado;9.20060001;-64.20799998
MP. FREITES;CM. CANTAURA;CENTRO DE EDUCACION INICIAL ANDRES BELLO 2;EDUCACION INICIAL;Cerrado;9.2007;-64.22679999
MP. FREITES;PQ. SANTA ROSA;ESCUELA NACIONAL BOLIVARIANA TERESA DE LA PARRA;EDUCACION BASICA;Cerrado;9.57458403;-64.29312198
MP. SOTILLO;CM. PUERTO LA CRUZ;ESCUELA NUESTRA SE?ORA DE LOURDES;EDUCACION BASICA;Cerrado;10.20729897;-64.63787202
MP. SOTILLO;PQ. POZUELOS;CICLO BASICO FRANCISCO SALIAS;EDUCACION BASICA;Cerrado;10.20731697;-64.62484902
MP. SOTILLO;CM. PUERTO LA CRUZ;PRE ESCOLAR JOSE LUIS ARREAZA;EDUCACION INICIAL;Cerrado;10.20750903;-64.65183597
MP. SOTILLO;CM. PUERTO LA CRUZ;LICEO ALIRIO ARREAZA ARREAZA;LICEO;Cerrado;10.209024;-64.64692296
MP. SOTILLO;PQ. POZUELOS;UNIDAD EDUCATIVA DOCTOR ANDRES MARIA HERNANDEZ CABALLERO;UNIDAD EDUCATIVA;Cerrado;10.20930696;-64.62954396
MP. SOTILLO;CM. PUERTO LA CRUZ;ESCUELA BASICA RODOLFO MAURERA;EDUCACION BASICA;Cerrado;10.2096;-64.64300004
MP. SOTILLO;CM. PUERTO LA CRUZ;INSTITUTO ANGELO DE MARTA;INSTITUTO EDUCATIVO;Cerrado;10.21169403;-64.64039103
MP. SOTILLO;CM. PUERTO LA CRUZ;LICEO TOMAS ALFARO CALATRAVA;LICEO;Cerrado;10.21407903;-64.63992699
MP. SOTILLO;PQ. POZUELOS;GRUPO ESCOLAR ANTONIO JOSE SOTILLO;GRUPO ESCOLAR;Cerrado;10.21419198;-64.63227699
MP. SOTILLO;PQ. POZUELOS;PRE-ESCOLAR DOCTOR GUZMAN LANDER;EDUCACION INICIAL;Cerrado;10.21446702;-64.62682398
MP. SOTILLO;PQ. POZUELOS;UNIDAD EDUCATIVA ROMULO GALLEGOS;UNIDAD EDUCATIVA;Cerrado;10.21478004;-64.62976302
MP. SOTILLO;CM. PUERTO LA CRUZ;INSTITUTO UNIVERSITARIO ANTONIO JOSE DE SUCRE;INSTITUTO UNIVERSITARIO;Cerrado;10.21620501;-64.63368
MP. SOTILLO;PQ. POZUELOS;GRUPO ESCOLAR DOMINGO GUZMAN LANDER;GRUPO ESCOLAR;Cerrado;10.21627197;-64.62993204
MP. SOTILLO;CM. PUERTO LA CRUZ;ESCUELA TECNICA PRIVADA MANUEL  PLACIDO MANEIRO;EDUCACION BASICA;Cerrado;10.21645602;-64.63497096
MP. SOTILLO;CM. PUERTO LA CRUZ;CENTRO JUVENIL DON BOSCO;EDUCACION BASICA Y SECUNDARIA;Cerrado;10.21783104;-64.63978002
MP. SOTILLO;PQ. POZUELOS;CENTRO DE EDUCACION INICIAL MARIA ZABALA;EDUCACION INICIAL;Cerrado;10.21794003;-64.62883197
MP. SOTILLO;CM. PUERTO LA CRUZ;COLEGIO SALESIANO PIO XII;EDUCACION BASICA Y SECUNDARIA;Cerrado;10.21796703;-64.63639701
MP. SOTILLO;CM. PUERTO LA CRUZ;GRUPO ESCOLAR DOMINGO SABIO;GRUPO ESCOLAR;Cerrado;10.219716;-64.63820196
MP. SOTILLO;PQ. POZUELOS;CENTRO DE EDUCACION INICIAL DOCTOR PASTOR OROPEZA UNIDAD II;EDUCACION INICIAL;Cerrado;10.222731;-64.62935703
MP. SOTILLO;PQ. POZUELOS;ESCUELA BOLIVARIANA DOCTOR JULIAN TEMISTOCLES MAZA;EDUCACION BASICA;Cerrado;10.22452002;-64.62896103
MP. SIMON RODRIGUEZ;CM. EL TIGRE;COLEGIO SAN ANTONIO;EDUCACION BASICA Y SECUNDARIA;Cerrado;8.88782103;-64.24869897
MP. SIMON RODRIGUEZ;CM. EL TIGRE;GRUPO ESCOLAR SIMON RODRIGUEZ;GRUPO ESCOLAR;Cerrado;8.88886701;-64.25946702
MP. SIMON RODRIGUEZ;CM. EL TIGRE;UNIDAD EDUCATIVA BOLIVARIANA DOCTOR JOSE RAFAEL REVENGA;UNIDAD EDUCATIVA;Cerrado;8.89036002;-64.238049
MP. SIMON RODRIGUEZ;CM. EL TIGRE;ESCUELA BASICA JOSE ANTONIO ANZOATEGUI;EDUCACION BASICA;Cerrado;8.890677;-64.26903897
MP. SIMON RODRIGUEZ;CM. EL TIGRE;UNIDAD EDUCATIVA MANUEL CARLOS PIAR;UNIDAD EDUCATIVA;Cerrado;8.89137504;-64.251441
MP. ANACO;PQ. ANACO;ESCUELA  BASICA  23 DE ENERO;EDUCACION BASICA;Cerrado;9.425565;-64.48358799
MP. SIMON RODRIGUEZ;CM. EL TIGRE;JARDIN DE INFANCIA LA CHARNECA;EDUCACION INICIAL;Cerrado;8.89166601;-64.27158903
MP. BOLIVAR;PQ. NARICUAL;UNIDAD EDUCATIVA QUERECUAL II NUCLEO DE EDUCACION RURAL 311;UNIDAD EDUCATIVA;Cerrado;9.95358402;-64.51796799
MP. SIMON RODRIGUEZ;CM. EL TIGRE;ESCUELA DE MANUALIDADES MARIA ANTONIA BOLIVAR;EDUCACION BASICA;Cerrado;8.89204896;-64.25052201
MP. ANACO;PQ. ANACO;COLEGIO PRIVADO EULALIA RAMOS SANCHEZ;EDUCACION BASICA Y SECUNDARIA;Cerrado;9.43188201;-64.48274001
MP. BOLIVAR;PQ. NARICUAL;UNIDAD EDUCATIVA JOSEFINA DE HERNANDEZ CAMEJO;UNIDAD EDUCATIVA;Cerrado;10.069236;-64.54516401
MP. SIMON RODRIGUEZ;CM. EL TIGRE;UNIDAD EDUCATIVA FERMIN TORO;UNIDAD EDUCATIVA;Cerrado;8.89208496;-64.24917201
MP. ANACO;PQ. ANACO;JARDIN DE INFANCIA 23 DE ENERO;EDUCACION INICIAL;Cerrado;9.42626403;-64.48264299
MP. SIMON RODRIGUEZ;CM. EL TIGRE;JARDIN DE INFANCIA  ROSALIA DE HERRERA;EDUCACION INICIAL;Cerrado;8.89222104;-64.276686
MP. BOLIVAR;PQ. EL CARMEN;UNIDAD EDUCATIVA JOSE RAMON CAMEJO;UNIDAD EDUCATIVA;Cerrado;10.17075501;-64.67654601
MP. BOLIVAR;PQ. NARICUAL;ESCUELA EL FRANCES;EDUCACION BASICA;Cerrado;10.070073;-64.48620204
MP. SIMON RODRIGUEZ;CM. EL TIGRE;UNIDAD EDUCATIVA DOCTOR RAUL LEONI;UNIDAD EDUCATIVA;Cerrado;8.89293996;-64.25334297
MP. ANACO;PQ. ANACO;UNIDAD EDUCATIVA JUAN PABLO SOJO;UNIDAD EDUCATIVA;Cerrado;9.423099;-64.48194504
MP. SOTILLO;PQ. POZUELOS;CENTRO DE EDUCACION INICIAL EL AMPARO ANEXO TERRAZA;EDUCACION INICIAL;Cerrado;10.17651582;-64.63207683
MP. ANACO;PQ. ANACO;UNIDAD EDUCATIVA DOCTOR AGUSTIN RAFAEL HERNANDEZ;UNIDAD EDUCATIVA;Cerrado;9.43414596;-64.48067397
MP. BOLIVAR;PQ. EL CARMEN;UNIDAD EDUCATIVA ALBERTO LOVERA;UNIDAD EDUCATIVA;Cerrado;10.17963396;-64.66304097
MP. BOLIVAR;PQ. NARICUAL;NUCLEO ESCOLAR RURAL 212 CARINAGUA;EDUCACION BASICA;Cerrado;10.07304102;-64.47567996
MP. ANACO;PQ. ANACO;LICEO BOLIVARIANO JOSE MANUEL MATUTE SALAZAR;LICEO;Cerrado;9.41865696;-64.48025799
MP. L/DIEGO BAUTISTA;PQ. EL MORRO;COLEGIO HUMBOLT;EDUCACION BASICA Y SECUNDARIA;Cerrado;10.18003797;-64.66789602
MP. ANACO;PQ. ANACO;ESCUELA  BASICA  PEDRO  HERRERA;EDUCACION BASICA;Cerrado;9.41749299;-64.47675303
MP. SOTILLO;PQ. POZUELOS;ESCUELA ESTADAL LAS LAJAS;EDUCACION BASICA;Cerrado;10.09931301;-64.53755802
MP. L/DIEGO BAUTISTA;PQ. EL MORRO;INSTITUTO UNIVERSITARIO DE TECNOLOGIA RODOLFO LOERO ARISMENDI (I.U.T.I.R.L.A.);INSTITUTO UNIVERSITARIO;Cerrado;10.18069803;-64.67076198
MP. BOLIVAR;PQ. EL PILAR;ESCUELA BOLIVARIANA DOCTOR PEDRO GARRON NU?EZ;EDUCACION BASICA;Cerrado;9.94188897;-64.78351398
MP. SOTILLO;PQ. POZUELOS;CENTRO DE EDUCACION INICIAL AMPARO;EDUCACION INICIAL;Cerrado;10.18118799;-64.63039698
MP. SIMON RODRIGUEZ;CM. EL TIGRE;CICLO BASICO DOCTOR JUAN PABLO ROJAS PAUL;EDUCACION BASICA;Cerrado;8.89812999;-64.23982002
MP. BOLIVAR;PQ. SAN CRISTOBAL;ESCUELA BOLIVARIANA LA ESPERANZA;EDUCACION BASICA;Cerrado;9.98091;-64.75348503
MP. SOTILLO;PQ. POZUELOS;ESCUELA BOLIVARIANA SABANA LARGA NUCLEO ESCOLAR RURAL 039;EDUCACION BASICA;Cerrado;10.10111796;-64.55185704
MP. SIMON RODRIGUEZ;CM. EL TIGRE;GRUPO ESCOLAR DIEGO BAUTISTA URBANEJA;GRUPO ESCOLAR;Cerrado;8.89821396;-64.24943499
MP. SOTILLO;PQ. POZUELOS;ESCUELA EZEQUIEL ZAMORA;EDUCACION BASICA;Cerrado;10.18197297;-64.61437896
MP. FREITES;PQ. SANTA ROSA;ESCUELA NACIONAL INDIGENA BOLIVARIANA PARAMAN;EDUCACION BASICA;Cerrado;9.57564603;-63.93437397
MP. BOLIVAR;PQ. EL PILAR;ESCUELA CONCENTRADA NUMERO 1240 LA CALERIA;EDUCACION BASICA;Cerrado;9.86893299;-64.75880304
MP. SOTILLO;PQ. POZUELOS;ESCUELA  BASICA CREACION SAN DIEGO;EDUCACION BASICA;Cerrado;10.11209796;-64.57362003
MP. SIMON RODRIGUEZ;CM. EL TIGRE;CENTRO DE EDUCACION Y RECUPERACION NUTRICIONAL PASTOR OROPEZA;EDUCACION BASICA Y SECUNDARIA;Cerrado;8.89832196;-64.23850197
MP. SIMON RODRIGUEZ;CM. EL TIGRE;LICEO BRICE?O MENDEZ;LICEO;Cerrado;8.89956702;-64.26271701
MP. SOTILLO;PQ. POZUELOS;UNIDAD EDUCATIVA MIGUEL OTERO SILVA;UNIDAD EDUCATIVA;Cerrado;10.182699;-64.63071099
MP. SOTILLO;PQ. POZUELOS;ESCUELA ESTADAL CONCENTRADA 265 EL TIGRE;EDUCACION BASICA;Cerrado;10.120176;-64.498725
MP. BOLIVAR;PQ. SAN CRISTOBAL;COMPLEJO EDUCATIVA BICENTENARIO 19 DE ABRIL DE 1810 SANTA BARBARA;EDUCACION BASICA Y SECUNDARIA;Cerrado;10.03182903;-64.73850597
MP. SIMON RODRIGUEZ;CM. EL TIGRE;ESCUELA BASICA  ESTADAL MENCA DE LEONI;EDUCACION BASICA;Cerrado;8.90253198;-64.24111899
MP. SIMON RODRIGUEZ;CM. EL TIGRE;ESCUELA BASICA 12 DE MARZO;EDUCACION BASICA;Cerrado;8.90594604;-64.24728597
MP. SIMON RODRIGUEZ;CM. EL TIGRE;UNIDAD EDUCATIVA LOS CHAGUARAMOS;UNIDAD EDUCATIVA;Cerrado;8.90768304;-64.27647504
MP. SOTILLO;PQ. POZUELOS;ESCUELA GRADUADA RAFAEL FERNANDEZ PADILLA;EDUCACION BASICA;Cerrado;10.13250204;-64.56186099
MP. SOTILLO;PQ. POZUELOS;ESCUELA BOLIVARIANA BOQUERON;EDUCACION BASICA;Cerrado;10.14374601;-64.55006802
MP. SOTILLO;PQ. POZUELOS;ESCUELA BOLIVARIANA DE CARRASPOSO;EDUCACION BASICA;Cerrado;10.163538;-64.50709599
MP. SOTILLO;PQ. POZUELOS;ESCUELA UNITARIA NUMERO 283 EL LIMON;EDUCACION BASICA;Cerrado;10.17881298;-64.57609197
MP. SOTILLO;PQ. POZUELOS;GRUPO ESCOLAR CACIQUE PAISANA;GRUPO ESCOLAR;Cerrado;10.19608002;-64.61245098
MP. BOLIVAR;PQ. EL CARMEN;UNIDAD EDUCATIVA NUESTRA SE?ORA DE LOURDES II;UNIDAD EDUCATIVA;Cerrado;10.18422;-64.65372399
MP. BOLIVAR;PQ. SAN CRISTOBAL;UNIDAD EDUCATIVA INDIGENA BOLIVARIANA SAN BERNANDINO;UNIDAD EDUCATIVA;Cerrado;9.96142896;-64.74125601
MP. SOTILLO;PQ. POZUELOS;GRUPO ESCOLAR CUEVA DE GUANIRE;GRUPO ESCOLAR;Cerrado;10.18436499;-64.62796797
MP. BOLIVAR;PQ. SAN CRISTOBAL;ESCUELA BASICA LOS POTOCOS NUCLEO ESCOLAR RURAL 371;EDUCACION BASICA;Cerrado;10.04178204;-64.73307501
MP. SOTILLO;PQ. POZUELOS;LICEO BOLIVARIANO GENERALISIMO FRANCISCO DE MIRANDA;LICEO;Cerrado;10.18471797;-64.61963604
MP. BOLIVAR;PQ. SAN CRISTOBAL;UNIDAD EDUCATIVA BOLIVARIANA PARACACUAL NUMERO 24- 41;UNIDAD EDUCATIVA;Cerrado;9.98567298;-64.72353402
MP. BOLIVAR;PQ. SAN CRISTOBAL;ESCUELA BASICA ESTADAL NEGRO PRIMERO MAYORQUIN III;EDUCACION BASICA;Cerrado;10.19910501;-64.61044497
MP. SOTILLO;PQ. POZUELOS;CENTRO DE EDUCACION INICIAL SIMONCITO  LA FUNDACION;EDUCACION INICIAL;Cerrado;10.18539999;-64.63970001
MP. SOTILLO;PQ. POZUELOS;CENTRO DE EDUCACION INICIAL VALLE VERDE;EDUCACION INICIAL;Cerrado;10.20191004;-64.60506801
MP. LIBERTAD;PQ. EL CARITO;ESCUELA  ESTADAL JOSE GREGORIO MONAGAS;EDUCACION BASICA;Cerrado;9.78716196;-64.73967696
MP. SOTILLO;PQ. POZUELOS;ESCUELA VALLE LINDO;EDUCACION BASICA;Cerrado;10.20192804;-64.61183403
MP. BOLIVAR;PQ. EL PILAR;ESCUELA ESTADAL GUARIMATA;EDUCACION BASICA;Cerrado;9.89610399;-64.72061001
MP. SOTILLO;PQ. POZUELOS;ESCUELA VALLE VERDE;EDUCACION BASICA;Cerrado;10.20276702;-64.60524396
MP. SOTILLO;CM. PUERTO LA CRUZ;ESCUELA BASICA ESTADAL MANUEL MORENO HERNANDEZ;EDUCACION BASICA;Cerrado;10.18625202;-64.65120903
MP. SOTILLO;PQ. POZUELOS;PRE ESCOLAR LUISA CACERES DE ARISMENDI;EDUCACION INICIAL;Cerrado;10.20528702;-64.61239302
MP. BOLIVAR;PQ. SAN CRISTOBAL;UNIDAD EDUCATIVA BOLIVARIANA CAMPO ALEGRE NUCLEO ESCOLAR RURAL  371;UNIDAD EDUCATIVA;Cerrado;9.95688297;-64.68644304
MP. SOTILLO;PQ. POZUELOS;LICEO CRISTOBAL COLON;LICEO;Cerrado;10.18759797;-64.63395603
MP. SOTILLO;PQ. POZUELOS;ESCUELA RURAL DE EDUCACION BASICA EL RESFRAN;EDUCACION BASICA;Cerrado;10.20600603;-64.611954
MP. SOTILLO;PQ. POZUELOS;ESCUELA  BASICA BARRIO SUCRE;EDUCACION BASICA;Cerrado;10.20720204;-64.608165
MP. SOTILLO;PQ. POZUELOS;GRUPO ESCOLAR ANIBAL DOMINICCI;GRUPO ESCOLAR;Cerrado;10.18885104;-64.63470096
MP. SOTILLO;PQ. POZUELOS;GRUPO ESCOLAR TEODORO QUIJADA WETTER;GRUPO ESCOLAR;Cerrado;10.20734199;-64.61227503
MP. SOTILLO;PQ. POZUELOS;ESCUELA BASICA DOCTOR ARMANDO ARMAS MOGNA;EDUCACION BASICA;Cerrado;10.189971;-64.62020997
MP. SOTILLO;PQ. POZUELOS;GUARDERIA MULTIHOGAR LA PEDRERA;GRUPO ESCOLAR;Cerrado;10.18999503;-64.62029997
MP. SOTILLO;PQ. POZUELOS;UNIDAD EDUCATIVA PRIVADA CARLOS SOUBLETTE;UNIDAD EDUCATIVA;Cerrado;10.190187;-64.63305
MP. MIRANDA;PQ. ATAPIRIRE;NUCLEO ESCOLAR RURAL 321 ALTAGRACIA DEL CARI;EDUCACION BASICA;Cerrado;8.56254897;-64.068228
MP. MIRANDA;PQ. ATAPIRIRE;ESCUELA RURAL NACIONAL AGUA CLARITA DE LIMO;EDUCACION BASICA;Cerrado;8.62821297;-64.12399398
MP. GUANIPA;CM. SAN JOSE DE GUANIPA;UNIDAD EDUCATIVA LOS OLIVOS;UNIDAD EDUCATIVA;Cerrado;8.87230998;-64.15475103
MP. GUANIPA;CM. SAN JOSE DE GUANIPA;CENTRO DE EDUCACION INICIAL BICENTENARIO;EDUCACION INICIAL;Cerrado;8.87408001;-64.16707401
MP. GUANIPA;CM. SAN JOSE DE GUANIPA;PRE-ESCOLAR JARDIN DE INFANCIA SAN JOSE DE GUANIPA;EDUCACION INICIAL;Cerrado;8.87722704;-64.163196
MP. GUANIPA;CM. SAN JOSE DE GUANIPA;UNIDAD EDUCATIVA RAFAEL MARCANO RODRIGUEZ;UNIDAD EDUCATIVA;Cerrado;8.879076;-64.16643501
MP. GUANIPA;CM. SAN JOSE DE GUANIPA;ESCUELA BASICA EZEQUIEL ZAMORA;EDUCACION BASICA;Cerrado;8.88125499;-64.17999702
MP. GUANIPA;CM. SAN JOSE DE GUANIPA;LICEO BOLIVARIANO GUANIPA;LICEO;Cerrado;8.88516396;-64.16631099
MP. GUANIPA;CM. SAN JOSE DE GUANIPA;SIMONCITO COMUNITARIO PAULA CORREA;EDUCACION INICIAL;Cerrado;8.88728202;-64.15749603
MP. GUANIPA;CM. SAN JOSE DE GUANIPA;ESCUELA RURAL ESTADAL BASICA LA FLORESTA;EDUCACION BASICA;Cerrado;8.88756399;-64.16787402
MP. SIMON RODRIGUEZ;CM. EL TIGRE;COLEGIO DOCTOR JOSE MARIA VARGAS;EDUCACION BASICA Y SECUNDARIA;Cerrado;8.88767703;-64.20147102
MP. GUANIPA;CM. SAN JOSE DE GUANIPA;GRUPO ESCOLAR RAFAEL MEDINA GARCIA;GRUPO ESCOLAR;Cerrado;8.88890004;-64.160253
MP. SIMON RODRIGUEZ;CM. EL TIGRE;GRUPO ESCOLAR RIGOBERTO PARACO;GRUPO ESCOLAR;Cerrado;8.890569;-64.23421203
MP. GUANIPA;CM. SAN JOSE DE GUANIPA;UNIDAD EDUCATIVA INSTITUTO PRIVADO JOSE GIL FORTOUL.;UNIDAD EDUCATIVA;Cerrado;8.89248204;-64.17118197
MP. SIMON RODRIGUEZ;CM. EL TIGRE;UNIDAD EDUCATIVA VALLE DE GUANIPA;UNIDAD EDUCATIVA;Cerrado;8.89359804;-64.22204997
MP. GUANIPA;CM. SAN JOSE DE GUANIPA;UNIDAD EDUCATIVA MARIO BRICE?O IRAGORRI;UNIDAD EDUCATIVA;Cerrado;8.89628004;-64.163016
MP. FREITES;PQ. URICA;LICEO BOLIVARIANO FRANCISCO CARVAJAL;LICEO;Cerrado;9.712008;-64.00798803
MP. FREITES;PQ. URICA;UNIDAD EDUCATIVA  BLAS FARI?A;UNIDAD EDUCATIVA;Cerrado;9.71208603;-64.00852596
MP. GUANTA;PQ. CHORRERON;UNIDAD EDUCATIVA LUISA CACERES DE ARISMENDI;UNIDAD EDUCATIVA;Cerrado;10.22005098;-64.59007896
MP. GUANTA;PQ. CHORRERON;ESCUELA CONCENTRADA NUMERO 106-267 EL CHAPARRO;EDUCACION BASICA;Cerrado;10.22808402;-64.546344
MP. SOTILLO;CM. PUERTO LA CRUZ;GRUPO ESCOLAR GUARAGUAOS;GRUPO ESCOLAR;Cerrado;10.23082704;-64.62418599
MP. GUANTA;PQ. GUANTA;GRUPO ESCOLAR SANDALIO GOMEZ;GRUPO ESCOLAR;Cerrado;10.23423102;-64.59543297
MP. GUANTA;PQ. GUANTA;CENTRO DE EDUCACION INICIAL BOLIVARIANO CACIQUE GUANTAR;EDUCACION INICIAL;Cerrado;10.234269;-64.59596298
MP. GUANTA;PQ. CHORRERON;ESCUELA GRADUADA ENRIQUE STOLK;EDUCACION BASICA;Cerrado;10.23454701;-64.55911896
MP. GUANTA;PQ. GUANTA;UNIDAD EDUCATIVA JUAN VICENTE GONZALEZ;UNIDAD EDUCATIVA;Cerrado;10.23503004;-64.60881804
MP. GUANTA;PQ. GUANTA;LICEO BOLIVARIANO MANUEL REYES BRAVO;LICEO;Cerrado;10.23546798;-64.596591
MP. GUANTA;PQ. GUANTA;JARDIN DE INFANCIA GUANTA;EDUCACION INICIAL;Cerrado;10.23820497;-64.60126299
MP. GUANTA;PQ. GUANTA;UNIDAD EDUCATIVA CIUDAD DE GUANTA;UNIDAD EDUCATIVA;Cerrado;10.24018299;-64.59226704
MP. GUANTA;PQ. GUANTA;UNIDAD EDUCATIVA ESTADAL LA PLAYA;UNIDAD EDUCATIVA;Cerrado;10.24103304;-64.59022602
MP. GUANTA;PQ. CHORRERON;ESCUELA OFICIAL COMBINADA LA LAGUNA NUCLEO ESCOLAR RURAL 310;EDUCACION BASICA;Cerrado;10.24296003;-64.533681
MP. FREITES;CM. CANTAURA;ESCUELA BOLIVARIANA BAJO HONDO;EDUCACION BASICA;Cerrado;9.046035;-64.30840902
MP. FREITES;CM. CANTAURA;ESCUELA CONCENTRADA MIXTA NUMERO 115-165-1747-216;EDUCACION BASICA;Cerrado;9.06430599;-64.32460902
MP. FREITES;CM. CANTAURA;ESCUELA PREBISTERO EDUARDO MARTINEZ;EDUCACION BASICA;Cerrado;9.21283596;-64.36178802
MP. FREITES;CM. CANTAURA;ESCUELA BOLIVARIANA BARBONERO;EDUCACION BASICA;Cerrado;9.30663603;-64.37377602
MP. FREITES;CM. CANTAURA;CENTRO DE EDUCACION INICIAL BOLIVARIANO LAS KARI?ITAS;EDUCACION INICIAL;Cerrado;9.31104702;-64.37497203
MP. ANACO;PQ. ANACO;UNIDAD EDUCATIVA ESPECIAL JULIO VICENTE APONTE BELISARIO;UNIDAD EDUCATIVA;Cerrado;9.40859001;-64.4625
MP. ANACO;PQ. ANACO;UNIDAD EDUCATIVA ANTONIO JOSE DE SUCRE;UNIDAD EDUCATIVA;Cerrado;9.41341797;-64.46505897
MP. ANACO;PQ. ANACO;ESCUELA  RURAL B  KILOMETRO 5;EDUCACION BASICA;Cerrado;9.41650704;-64.45902501
MP. ANACO;PQ. ANACO;ESCUELA BASICA CREACION ANACO;EDUCACION BASICA;Cerrado;9.41880402;-64.46455902
MP. ANACO;PQ. ANACO;ESCUELA BASICA NACIONAL FRAY NICOLAS DE ODENA;EDUCACION BASICA;Cerrado;9.41891796;-64.467036
MP. ANACO;PQ. ANACO;ESCUELA BASICA NACIONAL BICENTENARIO SIMON BOLIVAR;EDUCACION BASICA;Cerrado;9.42134103;-64.46656602
MP. ANACO;PQ. ANACO;CENTRO INTEGRAL DOCTOR EDUARDO CABRERA AMARAL;EDUCACION INICIAL;Cerrado;9.42386598;-64.46815002
MP. ANACO;PQ. ANACO;UNIDAD EDUCATIVA  LIBERTADOR SIMON BOLIVAR;UNIDAD EDUCATIVA;Cerrado;9.42492204;-64.47196899
MP. ANACO;PQ. ANACO;ESCUELA DOCTOR RAUL LEONI;EDUCACION BASICA;Cerrado;9.42655797;-64.45874502
MP. ANACO;PQ. ANACO;ESCUELA BOLIVARIANA ENURUU TAPIJHA;EDUCACION BASICA;Cerrado;9.43450002;-64.4364
MP. ANACO;PQ. ANACO;UNIDAD EDUCATIVA ROBERTO CASTILLO CARDIER;UNIDAD EDUCATIVA;Cerrado;9.43502598;-64.47993804
MP. ANACO;PQ. ANACO;ESCUELA  BASICA MERCEDES DE PEREZ FREITES;EDUCACION BASICA;Cerrado;9.43507998;-64.47786804
MP. ANACO;PQ. ANACO;UNIDAD EDUCATIVA ALI PRIMERA NUCLEO EDUCATIVO RURAL 144;UNIDAD EDUCATIVA;Cerrado;9.43788996;-64.43299998
MP. ANACO;PQ. ANACO;UNIDAD  EDUCATIVA  ANACO PDVSA;UNIDAD EDUCATIVA;Cerrado;9.43904601;-64.48175901
MP. BOLIVAR;PQ. SAN CRISTOBAL;ESCUELA DE CAPACITACION DE ADULTOS CAMINO NUEVO 1;EDUCACION BASICA;Cerrado;10.12656096;-64.68515496
MP. CAJIGAL;CM. ONOTO;UNIDAD EDUCATIVA LAS VEGUITAS;UNIDAD EDUCATIVA;Cerrado;9.56214603;-65.24802
MP. BOLIVAR;PQ. SAN CRISTOBAL;LICEO BOLIVARIANO CORONEL JUAN BAUTISTA BIDEAUX;LICEO;Cerrado;10.127187;-64.68970599
MP. CAJIGAL;CM. ONOTO;UNIDAD EDUCATIVA NACIONAL EL COROZO;UNIDAD EDUCATIVA;Cerrado;9.59514498;-65.19469401
MP. BOLIVAR;PQ. SAN CRISTOBAL;CENTRO EDUCACIONAL INICIAL LYA IMBER DE CORONIL;EDUCACION INICIAL;Cerrado;10.12891896;-64.69816599
MP. CAJIGAL;CM. ONOTO;LICEO BOLIVARIANO TOMAS IGNACIO POTENTINI;LICEO;Cerrado;9.59658804;-65.19424797
MP. BOLIVAR;PQ. SAN CRISTOBAL;ESCUELA DOCTOR JOSE TADEO ARREAZA CALATRAVA;EDUCACION BASICA;Cerrado;10.13021703;-64.68518304
MP. BOLIVAR;PQ. SAN CRISTOBAL;UNIDAD EDUCATIVA SIMON BOLIVAR 29 DE MARZO;UNIDAD EDUCATIVA;Cerrado;10.13244003;-64.69648497
MP. BOLIVAR;PQ. SAN CRISTOBAL;ESCUELA DE ARTES PLASTICAS ARMANDO REVERON;EDUCACION BASICA;Cerrado;10.13244003;-64.688526
MP. CAJIGAL;CM. ONOTO;CENTRO DE CAPACITACION ARGUINDEGUIZ DE ANZOATEGUI;CENTRO DE CAPACITACION;Cerrado;9.59680503;-65.19043602
MP. BOLIVAR;PQ. SAN CRISTOBAL;UNIDAD EDUCATIVA NACIONAL 29 DE MARZO;UNIDAD EDUCATIVA;Cerrado;10.13275701;-64.69222401
MP. CAJIGAL;CM. ONOTO;ESCUELA BOLIVARIANA LA ENCANTADA  NUMERO 55-1310;EDUCACION BASICA;Cerrado;9.69990102;-65.17147203
MP. BOLIVAR;PQ. EL CARMEN;ESCUELA ESTADAL CONSUELO NAVAS TOVAR;EDUCACION BASICA;Cerrado;10.13327901;-64.67369904
MP. MC GREGOR;PQ.TOMAS ALFARO CALATRAVA;ESCUELA UNITARIA NUCLEO EDUCACION RURAL  LAS RUYAS;EDUCACION BASICA;Cerrado;9.39037104;-65.18398401
MP. BOLIVAR;PQ. SAN CRISTOBAL;COMPLEJO EDUCATIVO NUESTRA SE?ORA DEL VALLE;EDUCACION BASICA Y SECUNDARIA;Cerrado;10.133559;-64.69186302
MP. MC GREGOR;PQ.TOMAS ALFARO CALATRAVA;ESCUELA CONCENTRADA NUMERO 1836-128;EDUCACION BASICA;Cerrado;9.35212599;-65.09077002
MP. BOLIVAR;PQ. SAN CRISTOBAL;CENTRO DE EDUCACION INICIAL  FRANCISCO FERRER;EDUCACION INICIAL;Cerrado;10.133829;-64.69381296
MP. ARAGUA;CM. ARAGUA DE BARCELONA;ESCUELA MANAPOCO;EDUCACION BASICA;Cerrado;9.38238102;-65.02596804
MP. BOLIVAR;PQ. SAN CRISTOBAL;UNIDAD  EDUCATIVA INSTITUTO PRIVADO FRANCISCO DE MIRANDA;UNIDAD EDUCATIVA;Cerrado;10.13395797;-64.68419304
MP. ARAGUA;CM. ARAGUA DE BARCELONA;ESCUELA BASICA ESTADAL  NUMERO 130 GUASTRANTAL;EDUCACION BASICA;Cerrado;9.56406501;-64.982133
MP. BOLIVAR;PQ. EL CARMEN;COMPLEJO EDUCATIVO ESTADAL ANZOATEGUI;EDUCACION BASICA Y SECUNDARIA;Cerrado;10.13495301;-64.68047802
MP. ARAGUA;CM. ARAGUA DE BARCELONA;ESCUELA NACIONAL NUMERO 53-2004 LAS MARGARITA;EDUCACION BASICA;Cerrado;9.67230801;-64.96320303
MP. BOLIVAR;PQ. EL CARMEN;UNIDAD EDUCATIVA ENRIQUE PEREZ VALENCIA;UNIDAD EDUCATIVA;Cerrado;10.13507001;-64.67497596
MP. BOLIVAR;PQ. EL CARMEN;CENTRO DE EDUCACION INICIAL JOSE FELIX RIBAS;EDUCACION INICIAL;Cerrado;10.13548896;-64.67652396
MP. ARAGUA;CM. ARAGUA DE BARCELONA;ESCUELA NACIONAL CONCENTRADA CACHEMIRA;EDUCACION BASICA;Cerrado;9.44090001;-64.94563197
MP. BOLIVAR;PQ. SAN CRISTOBAL;ESCUELA TECNICA ROBINSONIANA COMERCIAL DOCTOR  FELIPE GUEVARA ROJAS;EDUCACION BASICA;Cerrado;10.13576004;-64.68782697
MP. ARAGUA;CM. ARAGUA DE BARCELONA;ESCUELA CONCENTRADA LA FUNDACION NUMERO 20-94;EDUCACION BASICA;Cerrado;9.477702;-64.85994801
MP. BOLIVAR;PQ. SAN CRISTOBAL;GRUPO ESCOLAR REPUBLICA DE CHILE;GRUPO ESCOLAR;Cerrado;10.13580504;-64.69287003
MP. ARAGUA;CM. ARAGUA DE BARCELONA;ESCUELA CONCENTRADA NUMERO 1882-2152 BOQUERON 2;EDUCACION BASICA;Cerrado;9.47799;-64.85789997
MP. BOLIVAR;PQ. SAN CRISTOBAL;UNIVERSIDAD SIMON RODRIGUEZ;SUPERIOR;Cerrado;10.13592996;-64.69195599
MP. ARAGUA;CM. ARAGUA DE BARCELONA;ESCUELA NACIONAL LOS CONEJOS;EDUCACION BASICA;Cerrado;9.48790899;-64.85458599
MP. BOLIVAR;PQ. SAN CRISTOBAL;UNIDAD EDUCATIVA DOCTOR JOSE GIL FORTOUL II ALA IZQUIERDA;UNIDAD EDUCATIVA;Cerrado;10.13605497;-64.70070399
MP. ARAGUA;CM. ARAGUA DE BARCELONA;ESCUELA BOLIVARIANA  HERMANOS MONAGAS;EDUCACION BASICA;Cerrado;9.46515996;-64.84010004
MP. BOLIVAR;PQ. SAN CRISTOBAL;UNIDAD EDUCATIVA NACIONAL DOCTOR JULIO CAMEJO;UNIDAD EDUCATIVA;Cerrado;10.13688198;-64.69660098
MP. ARAGUA;CM. ARAGUA DE BARCELONA;ESCUELA BOLIVARIANA BARRIO LA CRUZ;EDUCACION BASICA;Cerrado;9.45227097;-64.83784797
MP. ARAGUA;CM. ARAGUA DE BARCELONA;UNIDAD EDUCATIVA CREACION ARAGUA;UNIDAD EDUCATIVA;Cerrado;9.45249696;-64.83404097
MP. ANACO;PQ. ANACO;JARDIN DE INFANCIA LUISA CACERES DE ARISMENDI;EDUCACION INICIAL;Cerrado;9.43976304;-64.46101797
MP. ANACO;PQ. ANACO;UNIDAD EDUCATIVA  VIENTO FRESCO;UNIDAD EDUCATIVA;Cerrado;9.44125596;-64.46155698
MP. ANACO;PQ. ANACO;ESCUELA BASICA JOSE MARIA VARGAS;EDUCACION BASICA;Cerrado;9.44928198;-64.43352198
MP. ANACO;PQ. ANACO;CENTRO DE EDUCACION INICIAL VALLE LINDO;EDUCACION INICIAL;Cerrado;9.46003302;-64.44993897
MP. ANACO;PQ. ANACO;ESCUELA BASICA 19 DE ABRIL DE 1810;EDUCACION BASICA;Cerrado;9.46755801;-64.47814101
MP. ANACO;PQ. ANACO;ESCUELA OFICIAL CONCENTRADA MIXTA SIN NUMERO ANAQUITO NUCLEO EDUCATIVO RURAL 144;EDUCACION BASICA;Cerrado;9.46841004;-64.47660003
MP. BOLIVAR;PQ. SAN CRISTOBAL;ESCUELA BOLIVARIANA LAS MARGARITAS DE VUELTA AL CARO;EDUCACION BASICA;Cerrado;10.00503603;-64.671408
MP. BOLIVAR;PQ. SAN CRISTOBAL;UNIDAD EDUCATIVA RURAL CECILIO ACOSTA;UNIDAD EDUCATIVA;Cerrado;10.05077403;-64.69854399
MP. BOLIVAR;PQ. SAN CRISTOBAL;ESCUELA DE CAPACITACION PARA ADULTOS QUINTINA MENESES DE MOYA;EDUCACION BASICA;Cerrado;10.05333804;-64.66883301
MP. BOLIVAR;PQ. SAN CRISTOBAL;LICEO BOLIVARIANO MIGUEL OTERO SILVA;LICEO;Cerrado;10.05939999;-64.68129999
MP. BOLIVAR;PQ. SAN CRISTOBAL;ESCUELA BASICA LA ORQUIDEA;EDUCACION BASICA;Cerrado;10.05942699;-64.68119199
MP. BOLIVAR;PQ. SAN CRISTOBAL;ESCUELA BASICA SIMON BOLIVAR;EDUCACION BASICA;Cerrado;10.06589997;-64.66930002
MP. ARAGUA;CM. ARAGUA DE BARCELONA;UNIDAD EDUCATIVA DOMINGO GUZMAN BASTARDO;UNIDAD EDUCATIVA;Cerrado;9.45385002;-64.83271797
MP. MIRANDA;CM. PARIAGUAN;ESCUELA NACIONAL NUMERO 78, LA PETERA;EDUCACION BASICA;Cerrado;8.83823004;-64.724004
MP. MIRANDA;CM. PARIAGUAN;LICEO PINTO SALINAS;LICEO;Cerrado;8.83857096;-64.71402498
MP. MIRANDA;CM. PARIAGUAN;UNIDAD EDUCATIVA DOCTOR RAMON POMPILIO OROPEZA;UNIDAD EDUCATIVA;Cerrado;8.83858401;-64.72236699
MP. MIRANDA;CM. PARIAGUAN;GRUPO ESCOLAR ROMUALDO GOMEZ;GRUPO ESCOLAR;Cerrado;8.840205;-64.72705797
MP. MIRANDA;CM. PARIAGUAN;INSTITUTO EDUCACIONAL PARIAGUAN;INSTITUTO EDUCATIVO;Cerrado;8.84516796;-64.72208196
MP. MIRANDA;CM. PARIAGUAN;ESCUELA RURAL BOLIVARIANA LAS PIEDRITAS;EDUCACION BASICA;Cerrado;8.89376301;-64.69771599
MP. ARAGUA;PQ. CACHIPO;ESCUELA NACIONAL CONCENTRADA NUMERO 629-630-668-2168 CACHIPO;EDUCACION BASICA;Cerrado;8.96880096;-64.63458603
MP. ARAGUA;PQ. CACHIPO;UNIDAD EDUCATIVA CAICO SECO;UNIDAD EDUCATIVA;Cerrado;8.98953399;-64.48075101
MP. FREITES;CM. CANTAURA;UNIDAD EDUCATIVA TASCABA?A I;UNIDAD EDUCATIVA;Cerrado;9.08204103;-64.37322504
MP. SANTA ANA;PQ. PUEBLO NUEVO;ESCUELA OFICIAL UNITARIA NUCLEO DE  EDUCACION RURAL 342 MERIA;EDUCACION BASICA;Cerrado;9.100287;-64.585683
MP. BOLIVAR;PQ. SAN CRISTOBAL;LICEO NACIONAL CAMINO NUEVO;LICEO;Cerrado;10.13703201;-64.70585199
MP. BOLIVAR;PQ. EL CARMEN;LICEO JOSE ANTONIO ANZOATEGUI;LICEO;Cerrado;10.13825502;-64.67860899
MP. BOLIVAR;PQ. SAN CRISTOBAL;CENTRO DE EDUCACION INICIAL POETA EDUARDO SIFONTES;EDUCACION INICIAL;Cerrado;10.13838696;-64.70880696
MP. BOLIVAR;PQ. EL CARMEN;CENTRO DE EDUCACION BELEN MARIA SAN JUAN;EDUCACION BASICA Y SECUNDARIA;Cerrado;10.13842197;-64.67663799
MP. BOLIVAR;PQ. SAN CRISTOBAL;CENTRO EDUCACION INICIAL PROFESOR JESUS RAFAEL VALLADARES;EDUCACION INICIAL;Cerrado;10.13985702;-64.70297901
MP. BOLIVAR;PQ. SAN CRISTOBAL;ESCUELA BICENTENARIO DEL LIBERTADOR;EDUCACION BASICA;Cerrado;10.13990499;-64.68251796
MP. BOLIVAR;PQ. SAN CRISTOBAL;UNIDAD EDUCATIVA DOCTOR JOSE GIL FORTOUL;UNIDAD EDUCATIVA;Cerrado;10.140048;-64.70894799
MP. BOLIVAR;PQ. SAN CRISTOBAL;UNIDAD EDUCATIVA EULALIA BUROZ;UNIDAD EDUCATIVA;Cerrado;10.14037398;-64.68564897
MP. BOLIVAR;PQ. SAN CRISTOBAL;UNIDAD EDUCATIVA NACIONAL CELESTINO FARRERA;UNIDAD EDUCATIVA;Cerrado;10.14176502;-64.68651702
MP. BOLIVAR;PQ. EL CARMEN;LICEO MONSE?OR NICOLAS EUGENIO NAVARRO;LICEO;Cerrado;10.14249204;-64.67777397
MP. BOLIVAR;PQ. SAN CRISTOBAL;CENTRO DE EDUCACION INICIAL DIVINO NI?O;EDUCACION INICIAL;Cerrado;10.14268104;-64.70351298
MP. BOLIVAR;PQ. EL CARMEN;CENTRO DE CAPACITACION DE ADULTOS JUANA PETRONILA DE HERNANDEZ;CENTRO DE CAPACITACION;Cerrado;10.14452298;-64.67861304
MP. BOLIVAR;PQ. SAN CRISTOBAL;UNIDAD EDUCATIVA INSTITUTO CREATIVO;UNIDAD EDUCATIVA;Cerrado;10.14571503;-64.68662097
MP. BOLIVAR;PQ. EL CARMEN;GRUPO ESCOLAR JOSE BERNARDO GOMEZ;GRUPO ESCOLAR;Cerrado;10.14704604;-64.67733603
MP. MONAGAS;PQ. PIAR;ESCUELA ESTADAL CONCENTRADA NUMERO 81-82-189;EDUCACION BASICA;Cerrado;8.05506102;-64.44579402
MP. MONAGAS;PQ. UVERITO;GRUPO ESCOLAR ROMULO GALLEGOS;GRUPO ESCOLAR;Cerrado;8.11219599;-64.687977
MP. MIRANDA;PQ. BOCA DEL PAO;ESCUELA SEBASTIAN FRANCISCO DE MIRANDA;EDUCACION BASICA;Cerrado;8.12358504;-64.30987098
MP. MONAGAS;PQ. PIAR;ESCUELA ESTADAL SIN NUMERO;EDUCACION BASICA;Cerrado;8.14991796;-64.39544802
MP. MONAGAS;PQ. ZUATA;ESCUELA UNITARIA LA MUCHACHA;EDUCACION BASICA;Cerrado;8.17540101;-65.14304499
MP. MONAGAS;PQ. SN DIEGO DE CABRUTICA;ESCUELA ESTADAL SAN MIGUEL;EDUCACION BASICA;Cerrado;8.24878602;-64.48055103
MP. MIRANDA;PQ. ATAPIRIRE;ESCUELA  BOLIVARIANA MUCURA;EDUCACION BASICA;Cerrado;8.32595202;-64.296396
MP. MONAGAS;PQ. SANTA CLARA;ESCUELA UNITARIA NUMERO 229;EDUCACION BASICA;Cerrado;8.33257998;-64.54783503
MP. MONAGAS;PQ. ZUATA;GRUPO ESCOLAR DOCTOR PIO CEBALLOS;GRUPO ESCOLAR;Cerrado;8.35513902;-65.19047598
MP. MONAGAS;PQ. SN DIEGO DE CABRUTICA;ESCUELA NACIONAL CONCENTRADA NUMERO 16-190-27;EDUCACION BASICA;Cerrado;8.40744504;-64.88919297
MP. MIRANDA;PQ. ATAPIRIRE;ESCUELA CONCENTRADA ATAPIRIRE;EDUCACION BASICA;Cerrado;8.434296;-64.37078703
MP. MONAGAS;PQ. SANTA CLARA;ESCUELA CONCENTRADA NUMERO 88-215-4;EDUCACION BASICA;Cerrado;8.49898404;-64.61135901
MP. MIRANDA;PQ. ATAPIRIRE;ESCUELA BASICA SAN SIMON;EDUCACION BASICA;Cerrado;8.50192299;-64.42125903
MP. INDEPENDENCIA;CM. SOLEDAD;ESCUELA BOLIVARIANA LA ENCARAMADA;EDUCACION BASICA;Cerrado;8.157564;-63.55812699
MP. INDEPENDENCIA;CM. SOLEDAD;GRUPO ESCOLAR FRAY NICOLAS DE ODENA;GRUPO ESCOLAR;Cerrado;8.16108903;-63.56224503
MP. INDEPENDENCIA;CM. SOLEDAD;GRUPO ESCOLAR DOCTOR JOSE MARIA RODRIGUEZ ARMAS;GRUPO ESCOLAR;Cerrado;8.16606801;-63.56073798
MP. INDEPENDENCIA;CM. SOLEDAD;GRUPO ESCOLAR JOSE ANTONIO ANZOATEGUI;GRUPO ESCOLAR;Cerrado;8.168913;-63.519624
MP. INDEPENDENCIA;CM. SOLEDAD;ESCUELA BASICA EZEQUIEL ZAMORA;EDUCACION BASICA;Cerrado;8.17413903;-63.56379402
MP. INDEPENDENCIA;PQ. MAMO;ESCUELA BOLIVARIANA PRIMARIA CARAPA;EDUCACION BASICA;Cerrado;8.32651101;-63.28424502
MP. INDEPENDENCIA;PQ. MAMO;ESCUELA ESTADAL NUMERO  68 BOTALON;EDUCACION BASICA;Cerrado;8.33338098;-63.25943697
MP. INDEPENDENCIA;PQ. MAMO;ESCUELA CONCENTRADA NACIONAL NUMERO 1035  JUASJUILLAR;EDUCACION BASICA;Cerrado;8.44526304;-63.03884904
MP. INDEPENDENCIA;PQ. MAMO;ESCUELA NACIONAL BOLIVARIANA MAMO ARRIBA;EDUCACION BASICA;Cerrado;8.45274096;-63.02312199
MP. INDEPENDENCIA;CM. SOLEDAD;UNIDAD EDUCATIVA LA ALDEA;UNIDAD EDUCATIVA;Cerrado;8.15524002;-63.56211903
MP. INDEPENDENCIA;CM. SOLEDAD;ESCUELA INTEGRAL BOLIVARIANA DE EDUCACION ESPECIAL SOLEDAD;EDUCACION BASICA;Cerrado;8.15808096;-63.56350701
MP. INDEPENDENCIA;CM. SOLEDAD;UNIDAD EDUCATIVA TEMISTOCLES MAZA;UNIDAD EDUCATIVA;Cerrado;8.15812704;-63.56338002
MP. INDEPENDENCIA;CM. SOLEDAD;NUCLEO EDUCACION RURAL 321 TAMARINDO;EDUCACION BASICA;Cerrado;8.16058503;-63.56517003
MP. INDEPENDENCIA;CM. SOLEDAD;GRUPO ESCOLAR TOMAS MONTILLA;GRUPO ESCOLAR;Cerrado;8.17167204;-63.56790999
MP. INDEPENDENCIA;CM. SOLEDAD;ESCUELA BOLIVARIANA MALPICA;EDUCACION BASICA;Cerrado;8.25934203;-63.66648402
MP. INDEPENDENCIA;CM. SOLEDAD;ESCUELA INTEGRAL BOLIVARIANA EL LINDERO;EDUCACION BASICA;Cerrado;8.34689997;-63.62450001
MP. INDEPENDENCIA;CM. SOLEDAD;ESCUELA BOLIVARIANA LAS CURAGUAS;EDUCACION BASICA;Cerrado;8.34699996;-63.61970004
MP. INDEPENDENCIA;CM. SOLEDAD;ESCUELA ESTADAL SIMON RODRIGUEZ;EDUCACION BASICA;Cerrado;8.34710004;-63.61669998
MP. INDEPENDENCIA;CM. SOLEDAD;ESCUELA ESTADAL NUMERO 67 TABARO;EDUCACION BASICA;Cerrado;8.42442399;-63.88205004
MP. INDEPENDENCIA;CM. SOLEDAD;ESCUELA NACIONAL UNITARIA NUMERO 1 MORICHAL LARGO;EDUCACION BASICA;Cerrado;8.482149;-63.68801598
